,City,Latitude,Longitude,Latitude_num,Longitude_num,avg_d_kbps
0,AR: Capital Federal-Ciudad de Buenos Aires,-34.613055555555555,-58.37722222222222,-34.613055555555555,-58.37722222222222,174489
1,AR: Mendoza-San Jose,-32.37111111111111,-68.21777777777778,-32.37111111111111,-68.21777777777778,1147
2,AR: Mendoza-Lujan de Cuyo,-33.0,-69.33333333333333,-33.0,-69.33333333333333,3890
3,AR: Mendoza-Guaymallen,-32.89083333333333,-68.82694444444444,-32.89083333333333,-68.82694444444444,44292
4,AR: Mendoza-Perdriel,-33.07472222222223,-68.88833333333334,-33.07472222222223,-68.88833333333334,57348
5,AR: San Juan-Chimbas,-31.487222222222222,-68.52666666666667,-31.487222222222222,-68.52666666666667,41535
6,AR: San Luis-Villa Mercedes,-33.675555555555555,-65.45777777777778,-33.675555555555555,-65.45777777777778,20198
7,AR: La Rioja-Chamical,-30.25,-65.83333333333333,-30.25,-65.83333333333333,12300
8,AR: La Rioja-Nonogasta,-29.305,-67.50222222222222,-29.305,-67.50222222222222,12236
9,AR: Chaco-Presidencia Roque Saenz Pena,-26.790833333333335,-60.441111111111105,-26.790833333333335,-60.441111111111105,97486
10,AR: Chaco-Puerto Vilelas,-27.510833333333334,-58.94166666666666,-27.510833333333334,-58.94166666666666,7782
11,AR: Corrientes-Goya,-29.139722222222222,-59.263333333333335,-29.139722222222222,-59.263333333333335,80288
12,AR: Entre Rios-San Antonio de Padua de la Concordia,0.0,0.0,0.0,0.0,24021
13,AR: Entre Rios-Colon,-32.00361111111111,-58.363055555555555,-32.00361111111111,-58.363055555555555,1556
14,AR: Entre Rios-Diamante,-32.166666666666664,-60.416666666666664,-32.166666666666664,-60.416666666666664,3504
15,AR: Formosa-Las Lomitas,-24.7,-60.583333333333336,-24.7,-60.583333333333336,3194
16,AR: Misiones-Puerto Iguazu,-25.598888888888887,-54.57333333333334,-25.598888888888887,-54.57333333333334,83567
17,AR: Misiones-Gran Posadas,0.0,0.0,0.0,0.0,24021
18,AR: Misiones-Leandro N. Alem,-27.566666666666666,-55.333333333333336,-27.566666666666666,-55.333333333333336,33422
19,AR: Jujuy-Gran San Salvador de Jujuy,0.0,0.0,0.0,0.0,24021
20,AR: Jujuy-Ledesma-Libertador General San Martin,-23.813055555555557,-64.79333333333334,-23.813055555555557,-64.79333333333334,4539
21,AR: Salta-Salta,-24.785833333333336,-65.41166666666668,-24.785833333333336,-65.41166666666668,85220
22,AR: Salta-San Ramon de la Nueva Oran,-23.136944444444445,-64.32416666666666,-23.136944444444445,-64.32416666666666,51413
23,AR: Santiago del Estero-Santiago del Estero,-28.0,-63.5,-28.0,-63.5,7594
24,AR: Tucuman-Delfin Gallo - La Florida,0.0,0.0,0.0,0.0,24021
25,AR: Buenos Aires-Almirante Brown,-34.833333333333336,-58.333333333333336,-34.833333333333336,-58.333333333333336,18633
26,AR: Buenos Aires-Avellaneda,-34.666666666666664,-58.333333333333336,-34.666666666666664,-58.333333333333336,14712
27,AR: Buenos Aires-Bahia Blanca,-38.7175,-62.265277777777776,-38.7175,-62.265277777777776,52041
28,AR: Buenos Aires-Berazategui,-34.765277777777776,-58.21277777777778,-34.765277777777776,-58.21277777777778,202532
29,AR: Buenos Aires-Esteban Echeverria,-34.81916666666667,-58.465833333333336,-34.81916666666667,-58.465833333333336,188269
30,AR: Buenos Aires-Florencio Varela,-34.833333333333336,-58.25,-34.833333333333336,-58.25,211
31,AR: Buenos Aires-General San Martin,-34.573055555555555,-58.54083333333333,-34.573055555555555,-58.54083333333333,133509
32,AR: Buenos Aires-Gran La Plata,-34.87777777777778,-58.08361111111111,-34.87777777777778,-58.08361111111111,140955
33,AR: Buenos Aires-Hurlingham (GBA),0.0,0.0,0.0,0.0,24021
34,AR: Buenos Aires-Jose C. Paz,-34.51972222222222,-58.76555555555556,-34.51972222222222,-58.76555555555556,116867
35,AR: Buenos Aires-La Matanza,-34.75,-58.583333333333336,-34.75,-58.583333333333336,139456
36,AR: Buenos Aires-Lanus,-34.666666666666664,-58.416666666666664,-34.666666666666664,-58.416666666666664,182088
37,AR: Buenos Aires-Lomas de Zamora,-34.75,-58.416666666666664,-34.75,-58.416666666666664,75651
38,AR: Buenos Aires-Malvinas Argentinas,-34.5075,-58.69555555555555,-34.5075,-58.69555555555555,114048
39,AR: Buenos Aires-Merlo,-34.665277777777774,-58.727222222222224,-34.665277777777774,-58.727222222222224,156281
40,AR: Buenos Aires-Moreno,-34.55916666666666,-58.78861111111111,-34.55916666666666,-58.78861111111111,8848
41,AR: Buenos Aires-Moron,-34.651111111111106,-58.621944444444445,-34.651111111111106,-58.621944444444445,151667
42,AR: Buenos Aires-Quilmes,-34.720555555555556,-58.254444444444445,-34.720555555555556,-58.254444444444445,145636
43,AR: Buenos Aires-Saladillo,-35.75,-59.666666666666664,-35.75,-59.666666666666664,1951
44,AR: Buenos Aires-San Fernando,-34.445277777777775,-58.54194444444444,-34.445277777777775,-58.54194444444444,124783
45,AR: Buenos Aires-San Isidro,-34.49,-58.530277777777776,-34.49,-58.530277777777776,170140
46,AR: Buenos Aires-San Miguel (GBA),0.0,0.0,0.0,0.0,24021
47,AR: Buenos Aires-Tigre,-34.49444444444445,-58.62722222222222,-34.49444444444445,-58.62722222222222,104542
48,AR: Buenos Aires-Tres de Febrero,-34.599722222222226,-58.56583333333333,-34.599722222222226,-58.56583333333333,172651
49,AR: Buenos Aires-Vicente Lopez,-34.52333333333333,-58.47416666666667,-34.52333333333333,-58.47416666666667,166935
50,AR: Buenos Aires-Pilar,-34.45861111111111,-58.913888888888884,-34.45861111111111,-58.913888888888884,97462
51,AR: Buenos Aires-Escobar,-34.333333333333336,-58.75,-34.333333333333336,-58.75,156774
52,AR: Buenos Aires-Ituzaingo,-34.66027777777778,-58.66611111111111,-34.66027777777778,-58.66611111111111,177147
53,AR: Buenos Aires-Ezeiza,-34.82222222222222,-58.53583333333333,-34.82222222222222,-58.53583333333333,4144
54,AR: Buenos Aires-Mar de Plata-General Pueyrredon,-38.000277777777775,-57.55611111111111,-38.000277777777775,-57.55611111111111,171026
55,AR: Buenos Aires-25 de Mayo,-35.5,-60.25,-35.5,-60.25,7644
56,AR: Buenos Aires-Berisso,-34.916666666666664,-57.833333333333336,-34.916666666666664,-57.833333333333336,25429
57,AR: Buenos Aires-Roque Perez,-35.44499999999999,-59.410555555555554,-35.44499999999999,-59.410555555555554,4455
58,AR: Buenos Aires-Tres Lomas,-36.45277777777778,-62.862500000000004,-36.45277777777778,-62.862500000000004,15177
59,AR: Cordoba-Villa Maria -Villa Nueva,0.0,0.0,0.0,0.0,24021
60,AR: Cordoba-Cordoba,-31.41333333333333,-64.18083333333334,-31.41333333333333,-64.18083333333334,115266
61,AR: Cordoba-Jesus Maria - Colonia Caroya,0.0,0.0,0.0,0.0,24021
62,AR: Cordoba-San Roque,-31.373333333333335,-64.4675,-31.373333333333335,-64.4675,10746
63,AR: La Pampa-Santa Rosa,-36.61666666666667,-64.28333333333333,-36.61666666666667,-64.28333333333333,91557
64,AR: Santa Fe-Gran Rosario,-32.975,-60.681666666666665,-32.975,-60.681666666666665,46610
65,AR: Santa Fe-Santa Fe,-31.648611111111112,-60.70861111111111,-31.648611111111112,-60.70861111111111,121305
66,AR: Santa Fe-Funes,-32.91555555555556,-60.80972222222222,-32.91555555555556,-60.80972222222222,104372
67,AR: Santa Fe-Gran Rosario-Pueblo Esther,0.0,0.0,0.0,0.0,24021
68,AR: Chubut-Rawson,-43.3,-65.10222222222221,-43.3,-65.10222222222221,27373
69,AR: Chubut-Comodoro Rivadavia,-45.862500000000004,-67.49388888888889,-45.862500000000004,-67.49388888888889,175022
70,AR: Neuquen-Neuquen,-38.95138888888889,-68.05888888888889,-38.95138888888889,-68.05888888888889,139406
71,AR: Rio Negro-Sierra Grande,-41.59166666666667,-65.33916666666666,-41.59166666666667,-65.33916666666666,21236
72,AR: Catamarca-Santa Maria,-26.666666666666668,-66.41666666666667,-26.666666666666668,-66.41666666666667,528
73,AR: San Fernando del Valle de Catamarca,-28.46944444444444,-65.785,-28.46944444444444,-65.785,30421
74,AR: Santa Cruz-Rio Gallegos,-51.6225,-69.21805555555555,-51.6225,-69.21805555555555,34963
75,AR: Santa Cruz-Caleta Olivia,-46.44777777777777,-67.5225,-46.44777777777777,-67.5225,27437
76,AR: Tierra del Fuego-Rio Grande,-53.7875,-67.70972222222223,-53.7875,-67.70972222222223,21372
77,BO: Beni-Trinidad,-14.833333333333334,-64.9,-14.833333333333334,-64.9,23273
78,BO: Beni-Riberalta,-11.01,-66.0525,-11.01,-66.0525,19729
79,BO: Chuquisaca-Sucre,-19.033055555555556,-65.2625,-19.033055555555556,-65.2625,32212
80,BO: Chuquisaca-Padcoyo,-20.4,-65.3,-20.4,-65.3,10557
81,BO: Chuquisaca-Mosoj Llajta,-19.651666666666664,-64.69944444444445,-19.651666666666664,-64.69944444444445,49197
82,BO: Cochabamba-Cochabamba,-17.389444444444443,-66.15666666666667,-17.389444444444443,-66.15666666666667,31490
83,BO: Cochabamba-Sacaba,-17.397777777777776,-66.03805555555556,-17.397777777777776,-66.03805555555556,23161
84,BO: Cochabamba-Quillacollo,-17.392222222222223,-66.27833333333334,-17.392222222222223,-66.27833333333334,22970
85,BO: Cochabamba-Ivirgarzama,-17.050833333333333,-64.86583333333333,-17.050833333333333,-64.86583333333333,14873
86,BO: Cochabamba-Arachaca,0.0,0.0,0.0,0.0,24021
87,BO: Cochabamba-Chinchilla,0.0,0.0,0.0,0.0,24021
88,BO: Cochabamba-Pocona,-17.65,-65.4,-17.65,-65.4,2767
89,BO: Cochabamba-Tutimayu,0.0,0.0,0.0,0.0,24021
90,BO: Cochabamba-Nueva Galilea,0.0,0.0,0.0,0.0,24021
91,BO: La Paz-El Alto,-16.513333333333332,-68.19222222222223,-16.513333333333332,-68.19222222222223,17500
92,BO: La Paz-Inquisivi,-16.95777777777778,-67.1563888888889,-16.95777777777778,-67.1563888888889,396011
93,BO: La Paz-La Paz,-16.5,-68.15,-16.5,-68.15,31827
94,BO: La Paz-Patacamaya,-17.23611111111111,-67.91416666666667,-17.23611111111111,-67.91416666666667,23200
95,BO: La Paz-Cairoma,-16.9,-67.55,-16.9,-67.55,40808
96,BO: La Paz-Taipiplaya,-15.833333333333334,-67.6,-15.833333333333334,-67.6,20135
97,BO: La Paz-Antequera,-17.666666666666668,-68.11666666666666,-17.666666666666668,-68.11666666666666,23054
98,BO: La Paz-San Antonio,-15.324444444444444,-67.52194444444444,-15.324444444444444,-67.52194444444444,20602
99,BO: La Paz-Santa Fe,-13.804444444444446,-67.82583333333334,-13.804444444444446,-67.82583333333334,29891
100,BO: Oruro-Oruro,-17.983333333333334,-67.15,-17.983333333333334,-67.15,22990
101,BO: Pando-Cobija,-11.026666666666667,-68.76916666666666,-11.026666666666667,-68.76916666666666,38144
102,BO: Pando-Santa Lucia,-11.08361111111111,-67.89555555555556,-11.08361111111111,-67.89555555555556,4370
103,BO: Potosi-Potosi,-19.58361111111111,-65.75305555555556,-19.58361111111111,-65.75305555555556,30042
104,BO: Potosi-Llallagua,-18.424722222222222,-66.57777777777777,-18.424722222222222,-66.57777777777777,16967
105,BO: Potosi-Tinguipaya,-19.22,-65.82277777777777,-19.22,-65.82277777777777,15609
106,BO: Potosi-Chayanta-Colquechaca,-18.883333333333333,-66.08333333333333,-18.883333333333333,-66.08333333333333,19327
107,BO: Potosi-Quivi Quivi,-19.45,-65.46666666666667,-19.45,-65.46666666666667,24562
108,BO: Santa Cruz-Santa Cruz,-17.78611111111111,-63.18111111111111,-17.78611111111111,-63.18111111111111,36152
109,BO: Santa Cruz-Montero Hoyos,-17.642777777777777,-62.82222222222222,-17.642777777777777,-62.82222222222222,18848
110,BO: Santa Cruz-La Guardia,-17.8925,-63.29222222222222,-17.8925,-63.29222222222222,32055
111,BO: Santa Cruz-Ascension de Guarayos,0.0,0.0,0.0,0.0,24021
112,BO: Santa Cruz-Las Barreras,-17.454166666666666,-63.17972222222222,-17.454166666666666,-63.17972222222222,25846
113,BO: Santa Cruz-Don Lorenzo,-17.783333333333335,-62.86666666666667,-17.783333333333335,-62.86666666666667,2446
114,BO: Santa Cruz-Paurito,-17.880833333333335,-62.94138888888889,-17.880833333333335,-62.94138888888889,3512
115,BO: Santa Cruz-La Asunta,-17.716666666666665,-61.61666666666667,-17.716666666666665,-61.61666666666667,17845
116,BO: Tarija-Tarija,-21.53527777777778,-64.72944444444444,-21.53527777777778,-64.72944444444444,27191
117,BO: Tarija-Yacuiba,-21.960833333333333,-63.651666666666664,-21.960833333333333,-63.651666666666664,17376
118,BO: Tarija-Villa El Carmen,-21.78805555555556,-63.57361111111111,-21.78805555555556,-63.57361111111111,12033
119,BR: Norte-Ananindeua,-1.3655555555555556,-48.37222222222222,-1.3655555555555556,-48.37222222222222,207620
120,BR: Norte-Belem,-1.4558333333333333,-48.504444444444445,-1.4558333333333333,-48.504444444444445,254435
121,BR: Norte-Jaru,-10.592222222222222,-62.585,-10.592222222222222,-62.585,6388
122,BR: Norte-Manaus,-3.1019444444444444,-60.025,-3.1019444444444444,-60.025,188000
123,BR: Norte-Maraba,-5.381388888888888,-49.132222222222225,-5.381388888888888,-49.132222222222225,181443
124,BR: Norte-Para-Cameta,-2.2955555555555556,-49.49194444444444,-2.2955555555555556,-49.49194444444444,147955
125,BR: Norte-Para-Sao Felix do Xingu,-7.213333333333334,-52.19333333333333,-7.213333333333334,-52.19333333333333,1805
126,BR: Norte-Amazonas-Nova Olinda,-3.9463888888888894,-58.59722222222222,-3.9463888888888894,-58.59722222222222,2596
127,BR: Nordeste-Campina Grande,-7.230555555555556,-35.88111111111111,-7.230555555555556,-35.88111111111111,151312
128,BR: Nordeste-Caruaru,-8.283333333333333,-35.976111111111116,-8.283333333333333,-35.976111111111116,76509
129,BR: Nordeste-Fortaleza,-3.7172222222222224,-38.543055555555554,-3.7172222222222224,-38.543055555555554,142739
130,BR: Nordeste-Jaboatao Dos Guararapes,-8.112777777777778,-35.014722222222225,-8.112777777777778,-35.014722222222225,70188
131,BR: Nordeste-Joao Pessoa,-7.114999999999999,-34.863055555555555,-7.114999999999999,-34.863055555555555,167459
132,BR: Nordeste-Maranguape,-3.9955555555555557,-38.72944444444445,-3.9955555555555557,-38.72944444444445,28638
133,BR: Nordeste-Paulista,-7.928055555555556,-34.88333333333333,-7.928055555555556,-34.88333333333333,98519
134,BR: Nordeste-Recife,-8.05388888888889,-34.88111111111111,-8.05388888888889,-34.88111111111111,182957
135,BR: Nordeste-Salvador,-12.975555555555555,-38.490833333333335,-12.975555555555555,-38.490833333333335,166985
136,BR: Nordeste-Sao Luis,-2.529722222222222,-44.30277777777778,-2.529722222222222,-44.30277777777778,105477
137,BR: Nordeste-Camacari,-12.6975,-38.32416666666667,-12.6975,-38.32416666666667,118389
138,BR: Nordeste-Alagoas-Junqueiro,-9.885,-36.45638888888889,-9.885,-36.45638888888889,93926
139,BR: Nordeste-Bahia-Utinga,-12.0425,-41.19472222222222,-12.0425,-41.19472222222222,10884
140,BR: Nordeste-Bahia-Marau-Barra,-13.905000000000001,-38.933055555555555,-13.905000000000001,-38.933055555555555,129707
141,BR: Nordeste-Bahia-Teofilandia,-11.533888888888889,-38.94499999999999,-11.533888888888889,-38.94499999999999,18095
142,BR: Nordeste-Ceara-Itarema,-3.0833333333333335,-39.89694444444444,-3.0833333333333335,-39.89694444444444,1763
143,BR: Nordeste-Ceara-Araripe,-7.204444444444444,-40.11416666666667,-7.204444444444444,-40.11416666666667,831
144,BR: Nordeste-Maranhao-Vitoria do Mearim,-3.4622222222222225,-44.870555555555555,-3.4622222222222225,-44.870555555555555,154173
145,BR: Sudeste-Belo Horizonte,-19.920833333333334,-43.937777777777775,-19.920833333333334,-43.937777777777775,198367
146,BR: Sudeste-Contagem,-19.88722222222222,-44.075833333333335,-19.88722222222222,-44.075833333333335,204334
147,BR: Sudeste-Diadema,-23.68611111111111,-46.62277777777778,-23.68611111111111,-46.62277777777778,206247
148,BR: Sudeste-Duque De Caxias,-22.785555555555558,-43.31166666666666,-22.785555555555558,-43.31166666666666,176202
149,BR: Sudeste-Guarulhos,-23.462777777777777,-46.53333333333333,-23.462777777777777,-46.53333333333333,217790
150,BR: Sudeste-Montes Claros,-16.587777777777777,-43.89972222222222,-16.587777777777777,-43.89972222222222,4394
151,BR: Sudeste-Nova Iguacu,-22.759166666666665,-43.45111111111111,-22.759166666666665,-43.45111111111111,225219
152,BR: Sudeste-Pouso Alegre,-22.2525,-45.9075,-22.2525,-45.9075,152122
153,BR: Sudeste-Ribeirao Preto,-21.177500000000002,-47.81027777777778,-21.177500000000002,-47.81027777777778,180963
154,BR: Sudeste-Rio De Janeiro,-22.906388888888888,-43.18222222222222,-22.906388888888888,-43.18222222222222,131867
155,BR: Sudeste-Sabara,-19.85388888888889,-43.783055555555556,-19.85388888888889,-43.783055555555556,122632
156,BR: Sudeste-Santo Andre,-23.663888888888888,-46.538333333333334,-23.663888888888888,-46.538333333333334,219168
157,BR: Sudeste-Sao Bernardo Do Campo,-23.69388888888889,-46.565,-23.69388888888889,-46.565,202148
158,BR: Sudeste-Sao Goncalo,-21.892222222222223,-45.59527777777778,-21.892222222222223,-45.59527777777778,124669
159,BR: Sudeste-Sao Joao De Meriti,-22.80388888888889,-43.37222222222222,-22.80388888888889,-43.37222222222222,240467
160,BR: Sudeste-Sao Paulo,-23.547500000000003,-46.63611111111111,-23.547500000000003,-46.63611111111111,193724
161,BR: Sudeste-Uberlandia,-18.91861111111111,-48.27722222222222,-18.91861111111111,-48.27722222222222,158650
162,BR: Sudeste-Catanduva,-21.128888888888888,-48.961666666666666,-21.128888888888888,-48.961666666666666,136209
163,BR: Sudeste-Taubate,-23.02638888888889,-45.555277777777775,-23.02638888888889,-45.555277777777775,196239
164,BR: Sudeste-Presidente Prudente,-22.125555555555557,-51.388888888888886,-22.125555555555557,-51.388888888888886,186090
165,BR: Sudeste-Mage,-22.652777777777775,-43.04055555555556,-22.652777777777775,-43.04055555555556,96074
166,BR: Sudeste-Itupeva,-23.145,-47.06361111111111,-23.145,-47.06361111111111,147532
167,BR: Sudeste-Paulinia,-22.761111111111113,-47.15416666666667,-22.761111111111113,-47.15416666666667,193566
168,BR: Sudeste-Praia Grande,-24.00583333333333,-46.40277777777778,-24.00583333333333,-46.40277777777778,187026
169,BR: Sudeste-Mogi das Cruzes,-23.522777777777776,-46.18833333333333,-23.522777777777776,-46.18833333333333,162174
170,BR: Sudeste-Sao Paulo-Cajamar,-23.351666666666667,-46.88111111111111,-23.351666666666667,-46.88111111111111,165528
171,BR: Sudeste-Sao Paulo-Osasco,-23.52611111111111,-46.788333333333334,-23.52611111111111,-46.788333333333334,190341
172,BR: Sudeste-Sao Paulo-Pedreiras,-22.741944444444446,-46.90138888888889,-22.741944444444446,-46.90138888888889,138901
173,BR: Sudeste-Minas Gerais-Alvinopolis,-20.10666666666667,-43.04888888888889,-20.10666666666667,-43.04888888888889,213261
174,BR: Sudeste-Minas Gerais-Sao Domingos das Dores,-19.51972222222222,-42.03388888888889,-19.51972222222222,-42.03388888888889,76166
175,BR: Sudeste-Minas Gerais-Cassia,-20.583055555555557,-46.92194444444444,-20.583055555555557,-46.92194444444444,104591
176,BR: Sudeste-Minas Gerais-Rio Espera,-20.853333333333335,-43.52027777777778,-20.853333333333335,-43.52027777777778,41248
177,BR: Sudeste-Rio De Janeiro-Cachoeiras de Macacu,-22.487222222222222,-42.71138888888889,-22.487222222222222,-42.71138888888889,28801
178,BR: Sudeste-Rio De Janeiro-Aperibe,-21.641388888888887,-42.1275,-21.641388888888887,-42.1275,33025
179,BR: Sudeste-Sao Paulo-Pederneiras,-22.308611111111112,-48.86555555555556,-22.308611111111112,-48.86555555555556,34138
180,BR: Sudeste-Sao Paulo-Marilia,-22.21388888888889,-49.94583333333333,-22.21388888888889,-49.94583333333333,202949
181,BR: Sul-Alvorada,-29.990277777777777,-51.07805555555556,-29.990277777777777,-51.07805555555556,219915
182,BR: Sul-Araucaria,-25.593055555555555,-49.41027777777778,-25.593055555555555,-49.41027777777778,114283
183,BR: Sul-Cascavel,-24.95583333333333,-53.45527777777778,-24.95583333333333,-53.45527777777778,157494
184,BR: Sul-Curitiba,-25.42777777777778,-49.27305555555555,-25.42777777777778,-49.27305555555555,205641
185,BR: Sul-Gravatai,-29.941944444444445,-50.99277777777778,-29.941944444444445,-50.99277777777778,189388
186,BR: Sul-Porto Alegre,-30.032777777777778,-51.230000000000004,-30.032777777777778,-51.230000000000004,200693
187,BR: Sul-Sao Jose Dos Pinhais,-25.529999999999998,-49.208333333333336,-25.529999999999998,-49.208333333333336,170827
188,BR: Sul-Sao Miguel do Oeste,-26.71861111111111,-53.51916666666666,-26.71861111111111,-53.51916666666666,169580
189,BR: Sul-Parana-Altonia,-23.886388888888888,-53.968333333333334,-23.886388888888888,-53.968333333333334,20183
190,BR: Sul-Rio Grande do Sul-Sapiranga,-29.638055555555557,-51.00694444444444,-29.638055555555557,-51.00694444444444,236628
191,BR: Sul-Rio Grande do Sul-Flores da Cunha,-29.028888888888886,-51.181666666666665,-29.028888888888886,-51.181666666666665,104038
192,BR: Sul-Rio Grande do Sul-Ametista do Sul,-27.366944444444446,-53.18694444444444,-27.366944444444446,-53.18694444444444,689
193,BR: Sul-Rio Grande do Sul-Lajeado,-29.466944444444444,-51.96138888888889,-29.466944444444444,-51.96138888888889,237308
194,BR: Sul-Santa Catarina-Sao Francisco do Sul,-26.243333333333336,-48.63805555555555,-26.243333333333336,-48.63805555555555,150209
195,BR: Centro Oeste-Brasilia,-15.0,-52.0,-15.0,-52.0,7655
196,BR: Centro Oeste-Cuiaba,-15.596111111111112,-56.09666666666667,-15.596111111111112,-56.09666666666667,138844
197,BR: Centro Oeste-Goiania,-16.678611111111113,-49.25388888888889,-16.678611111111113,-49.25388888888889,192748
198,BR: Centro Oeste-Mato Grosso do Sul-Ponta Pora,-22.549444444444447,-55.7025,-22.549444444444447,-55.7025,60585
199,BR: Centro Oeste-Goias-Itaberai,-16.02027777777778,-49.81027777777778,-16.02027777777778,-49.81027777777778,108940
200,BR: Centro Oeste-Goias-Cidade Ocidental,-16.161666666666665,-47.79972222222222,-16.161666666666665,-47.79972222222222,8371
201,BR: Centro Oeste-Mato Grosso-Sao Jose dos Quatro Marcos,-15.56638888888889,-58.29694444444444,-15.56638888888889,-58.29694444444444,3724
202,CL: Metropolitana-Barnechea,-33.36055555555556,-70.51222222222222,-33.36055555555556,-70.51222222222222,326989
203,CL: Metropolitana-Buin,-33.7325,-70.74277777777777,-33.7325,-70.74277777777777,229524
204,CL: Metropolitana-Cerrillos,-33.49277777777778,-70.69722222222222,-33.49277777777778,-70.69722222222222,848
205,CL: Metropolitana-Conchali,-33.38361111111111,-70.67722222222223,-33.38361111111111,-70.67722222222223,268752
206,CL: Metropolitana-Curacavi,-33.3975,-71.12694444444443,-33.3975,-71.12694444444443,129923
207,CL: Metropolitana-El Bosque,-33.56083333333333,-70.6875,-33.56083333333333,-70.6875,342413
208,CL: Metropolitana-El Carmen,-33.61666666666667,-70.83333333333333,-33.61666666666667,-70.83333333333333,158980
209,CL: Metropolitana-Estacion Central,-33.464444444444446,-70.69833333333334,-33.464444444444446,-70.69833333333334,277907
210,CL: Metropolitana-Huechuraba,-33.36027777777778,-70.63722222222223,-33.36027777777778,-70.63722222222223,239266
211,CL: Metropolitana-Independencia,-33.41166666666666,-70.66638888888889,-33.41166666666666,-70.66638888888889,309975
212,CL: Metropolitana-La Cisterna,-33.53,-70.66388888888889,-33.53,-70.66388888888889,278521
213,CL: Metropolitana-La Florida,-33.538333333333334,-70.55444444444444,-33.538333333333334,-70.55444444444444,222285
214,CL: Metropolitana-La Granja,-33.53527777777778,-70.62222222222222,-33.53527777777778,-70.62222222222222,210025
215,CL: Metropolitana-La Pintana,-33.58305555555556,-70.63416666666667,-33.58305555555556,-70.63416666666667,263525
216,CL: Metropolitana-La Reina,-33.44833333333333,-70.53555555555555,-33.44833333333333,-70.53555555555555,236904
217,CL: Metropolitana-Las Condes,-33.42055555555555,-70.50166666666667,-33.42055555555555,-70.50166666666667,231002
218,CL: Metropolitana-Lo Prado,-33.44416666666666,-70.72527777777778,-33.44416666666666,-70.72527777777778,307576
219,CL: Metropolitana-Macul,-33.49,-70.60083333333333,-33.49,-70.60083333333333,282468
220,CL: Metropolitana-Maipu,-33.51416666666667,-70.765,-33.51416666666667,-70.765,306902
221,CL: Metropolitana-Melipilla,-33.68888888888888,-71.21527777777779,-33.68888888888888,-71.21527777777779,201919
222,CL: Metropolitana-Nunoa,-33.447222222222216,-70.58277777777778,-33.447222222222216,-70.58277777777778,281514
223,CL: Metropolitana-Pedro Aguirre Cerda,-33.49166666666667,-70.67611111111111,-33.49166666666667,-70.67611111111111,355790
224,CL: Metropolitana-Penaflor,-33.60611111111111,-70.87638888888888,-33.60611111111111,-70.87638888888888,289990
225,CL: Metropolitana-Penalolen,-33.468333333333334,-70.53388888888888,-33.468333333333334,-70.53388888888888,304999
226,CL: Metropolitana-Providencia,-33.43083333333333,-70.60444444444444,-33.43083333333333,-70.60444444444444,328834
227,CL: Metropolitana-Pudahuel,-33.42388888888889,-70.85472222222222,-33.42388888888889,-70.85472222222222,3396
228,CL: Metropolitana-Puente Alto,-33.611666666666665,-70.57555555555555,-33.611666666666665,-70.57555555555555,301527
229,CL: Metropolitana-Quilicura,-33.35527777777778,-70.73583333333333,-33.35527777777778,-70.73583333333333,319329
230,CL: Metropolitana-Quinta Normal,-33.44166666666666,-70.67888888888889,-33.44166666666666,-70.67888888888889,92735
231,CL: Metropolitana-Recoleta,-33.406388888888884,-70.63944444444445,-33.406388888888884,-70.63944444444445,346817
232,CL: Metropolitana-Renca,-33.39055555555556,-70.71055555555556,-33.39055555555556,-70.71055555555556,280111
233,CL: Metropolitana-San Bernardo,-33.591944444444444,-70.69944444444445,-33.591944444444444,-70.69944444444445,265778
234,CL: Metropolitana-San Joaquin,-33.5,-70.61666666666666,-33.5,-70.61666666666666,264537
235,CL: Metropolitana-San Miguel,-33.49888888888889,-70.65166666666667,-33.49888888888889,-70.65166666666667,269697
236,CL: Metropolitana-Santiago,-33.456944444444446,-70.64805555555556,-33.456944444444446,-70.64805555555556,304553
237,CL: Metropolitana-Talagante,-33.66361111111111,-70.92722222222223,-33.66361111111111,-70.92722222222223,256093
238,CL: Metropolitana-Vitacura,-33.39222222222222,-70.5825,-33.39222222222222,-70.5825,244989
239,CL: Metropolitana-Bajos de San Agustin,0.0,0.0,0.0,0.0,24021
240,CL: Metropolitana-Valdivia de Paine,-33.808055555555555,-70.85777777777777,-33.808055555555555,-70.85777777777777,286497
241,CL: Metropolitana-Hospital,-33.86805555555556,-70.74555555555555,-33.86805555555556,-70.74555555555555,63389
242,CL: Metropolitana-Talagante-Padre Hurtado,-33.55694444444444,-70.87055555555555,-33.55694444444444,-70.87055555555555,92287
243,CL: Metropolitana-Santiago-Angostura,-33.870555555555555,-71.20444444444445,-33.870555555555555,-71.20444444444445,1837
244,CL: Metropolitana-Santiago-Cerro Navia,-33.422777777777775,-70.745,-33.422777777777775,-70.745,327760
245,CL: Tarapaca-Alto Hospicio,-20.26861111111111,-70.10472222222222,-20.26861111111111,-70.10472222222222,243536
246,CL: Tarapaca-Iquique,-20.213055555555556,-70.15027777777779,-20.213055555555556,-70.15027777777779,271366
247,CL: Antofagasta-Antofagasta,-23.65222222222222,-70.39527777777778,-23.65222222222222,-70.39527777777778,213304
248,CL: Antofagasta-Calama,-22.456666666666667,-68.92361111111111,-22.456666666666667,-68.92361111111111,296944
249,CL: Atacama-Copiapo,-27.366666666666667,-70.33138888888888,-27.366666666666667,-70.33138888888888,285958
250,CL: Atacama-Vallenar,-28.59638888888889,-70.75583333333333,-28.59638888888889,-70.75583333333333,229034
251,CL: Coquimbo-Coquimbo,-30.75,-71.0,-30.75,-71.0,8781
252,CL: Coquimbo-La Serena,-29.904444444444444,-71.24888888888889,-29.904444444444444,-71.24888888888889,268521
253,CL: Coquimbo-Ovalle,-30.600833333333334,-71.19888888888889,-30.600833333333334,-71.19888888888889,222603
254,CL: Coquimbo-Elqui-Coquimbito,0.0,0.0,0.0,0.0,24021
255,CL: Valparaiso-La Calera,-32.78333333333333,-71.21666666666667,-32.78333333333333,-71.21666666666667,278995
256,CL: Valparaiso-Los Andes,-32.83361111111111,-70.59805555555555,-32.83361111111111,-70.59805555555555,295855
257,CL: Valparaiso-Quillota,-32.88333333333333,-71.24861111111112,-32.88333333333333,-71.24861111111112,260407
258,CL: Valparaiso-Quilpue,-33.0475,-71.44250000000001,-33.0475,-71.44250000000001,292049
259,CL: Valparaiso-San Antonio,-33.594722222222224,-71.60722222222222,-33.594722222222224,-71.60722222222222,322865
260,CL: Valparaiso-San Esteban,-32.79861111111111,-70.58055555555555,-32.79861111111111,-70.58055555555555,381898
261,CL: Valparaiso-San Felipe,-32.749722222222225,-70.72583333333334,-32.749722222222225,-70.72583333333334,227616
262,CL: Valparaiso-Valparaiso,-33.03583333333333,-71.62944444444443,-33.03583333333333,-71.62944444444443,235795
263,CL: Valparaiso-Villa Alemana,-33.04805555555556,-71.37277777777777,-33.04805555555556,-71.37277777777777,220806
264,CL: Valparaiso-Vina Del Mar,-33.02444444444444,-71.55166666666666,-33.02444444444444,-71.55166666666666,225330
265,CL: Valparaiso-Hijuelas,-32.79805555555556,-71.14611111111111,-32.79805555555556,-71.14611111111111,426095
266,CL: Valparaiso-San Felipe-Concon,0.0,0.0,0.0,0.0,24021
267,CL: Libertador Bernardo O'Higgins-Rancagua,-34.170833333333334,-70.74444444444444,-34.170833333333334,-70.74444444444444,411158
268,CL: Libertador Bernardo O'Higgins-San Fernando,-34.56638888888889,-70.96861111111112,-34.56638888888889,-70.96861111111112,4673
269,CL: Libertador Bernardo O'Higgins-Pelequen,-34.46416666666667,-70.89444444444445,-34.46416666666667,-70.89444444444445,251213
270,CL: Libertador Bernardo O'Higgins-Malloa,-34.476111111111116,-70.87333333333332,-34.476111111111116,-70.87333333333332,413759
271,CL: Libertador Bernardo O'Higgins-Colchagua-Peralillo,-34.448611111111106,-71.38583333333334,-34.448611111111106,-71.38583333333334,20949
272,CL: Libertador Bernardo O'Higgins-Las Cabras-El Manzano,-34.15555555555555,-71.45583333333333,-34.15555555555555,-71.45583333333333,13422
273,CL: Libertador Bernardo O'Higgins-Pichidegua-Las Pataguas,-34.29972222222222,-71.35555555555555,-34.29972222222222,-71.35555555555555,400210
274,CL: Libertador Bernardo O'Higgins-Pichidegua-Pataguas Orilla,-34.29972222222222,-71.35555555555555,-34.29972222222222,-71.35555555555555,400210
275,CL: Maule-Curico,-34.98277777777778,-71.23916666666666,-34.98277777777778,-71.23916666666666,200300
276,CL: Maule-Linares,-35.84666666666667,-71.59305555555555,-35.84666666666667,-71.59305555555555,338574
277,CL: Maule-Molina,-35.11416666666667,-71.28222222222222,-35.11416666666667,-71.28222222222222,93292
278,CL: Maule-Parral,-36.143055555555556,-71.82583333333334,-36.143055555555556,-71.82583333333334,252485
279,CL: Maule-Talca,-35.42638888888889,-71.65527777777778,-35.42638888888889,-71.65527777777778,175354
280,CL: Maule-Talca-Lo Figueroa,-35.41277777777778,-71.76027777777777,-35.41277777777778,-71.76027777777777,410961
281,CL: Maule-Santa Ana de Queri,-35.624722222222225,-71.46027777777778,-35.624722222222225,-71.46027777777778,9910
282,CL: Maule-Vara Gruesa,-35.8325,-71.52444444444444,-35.8325,-71.52444444444444,32064
283,CL: Bio Bio-Chiguayante,-36.925555555555555,-73.02833333333334,-36.925555555555555,-73.02833333333334,282318
284,CL: Bio Bio-Chillan,-36.828611111111115,-71.40972222222223,-36.828611111111115,-71.40972222222223,338605
285,CL: Bio Bio-Concepcion,-36.82694444444445,-73.04972222222221,-36.82694444444445,-73.04972222222221,227092
286,CL: Bio Bio-Coronel,-37.03361111111111,-73.14,-37.03361111111111,-73.14,384430
287,CL: Bio Bio-Hualqui,-36.972500000000004,-72.93555555555555,-36.972500000000004,-72.93555555555555,240766
288,CL: Bio Bio-Los Angeles,-37.469722222222224,-72.3536111111111,-37.469722222222224,-72.3536111111111,234262
289,CL: Bio Bio-Lota,-37.08972222222222,-73.1575,-37.08972222222222,-73.1575,192952
290,CL: Bio Bio-Millantu,-37.41027777777778,-72.61166666666666,-37.41027777777778,-72.61166666666666,79199
291,CL: Bio Bio-Penco,-36.74055555555556,-72.99527777777777,-36.74055555555556,-72.99527777777777,257519
292,CL: Bio Bio-San Pedro De La Paz,-36.83888888888889,-73.10027777777778,-36.83888888888889,-73.10027777777778,280503
293,CL: Bio Bio-Talcahuano,-36.724722222222226,-73.11666666666666,-36.724722222222226,-73.11666666666666,341894
294,CL: Bio Bio-Tome,-36.6175,-72.95583333333333,-36.6175,-72.95583333333333,181613
295,CL: Bio Bio-Yumbel,-37.09805555555556,-72.56083333333333,-37.09805555555556,-72.56083333333333,342487
296,CL: Bio Bio-Contulmo,-38.01555555555556,-73.22972222222222,-38.01555555555556,-73.22972222222222,338343
297,CL: Bio Bio-El Recurso,0.0,0.0,0.0,0.0,24021
298,CL: Bio Bio-Concepcion-Hualpen,-36.788888888888884,-73.10138888888888,-36.788888888888884,-73.10138888888888,265918
299,CL: Bio Bio-Caupolican,-37.54833333333333,-73.35888888888888,-37.54833333333333,-73.35888888888888,123703
300,CL: La Araucania-Angol,-37.794444444444444,-72.68722222222223,-37.794444444444444,-72.68722222222223,439829
301,CL: La Araucania-Freire,-38.92527777777777,-72.65083333333334,-38.92527777777777,-72.65083333333334,67270
302,CL: La Araucania-San Ramon,-37.874722222222225,-72.97500000000001,-37.874722222222225,-72.97500000000001,53043
303,CL: La Araucania-Temuco,-38.739444444444445,-72.59833333333333,-38.739444444444445,-72.59833333333333,348602
304,CL: La Araucania-Vilcun,-38.69083333333333,-72.2875,-38.69083333333333,-72.2875,28536
305,CL: La Araucania-Cholchol,-38.751666666666665,-72.97888888888889,-38.751666666666665,-72.97888888888889,28012
306,CL: La Araucania-Quitratue,-39.13361111111111,-72.66944444444445,-39.13361111111111,-72.66944444444445,200800
307,CL: La Araucania-El Sauce,0.0,0.0,0.0,0.0,24021
308,CL: La Araucania-Padre Las Casas,-38.766666666666666,-72.63694444444445,-38.766666666666666,-72.63694444444445,643270
309,CL: La Araucania-San Patricio,-38.10944444444445,-72.87444444444444,-38.10944444444445,-72.87444444444444,229654
310,CL: Los Lagos-Osorno,-40.573888888888895,-73.13333333333334,-40.573888888888895,-73.13333333333334,319059
311,CL: Los Lagos-Puerto Montt,-41.469166666666666,-72.94222222222223,-41.469166666666666,-72.94222222222223,219055
312,CL: Los Lagos-Puerto Montt-Piedra Azul,-41.48888888888889,-72.81166666666667,-41.48888888888889,-72.81166666666667,106996
313,CL: Los Lagos-Rio Negro,-40.796388888888885,-73.21527777777779,-40.796388888888885,-73.21527777777779,64475
314,CL: Los Lagos-Puerto Varas,-41.31944444444445,-72.98527777777778,-41.31944444444445,-72.98527777777778,321259
315,CL: Los Lagos-Huelmo,-42.63138888888889,-73.35722222222222,-42.63138888888889,-73.35722222222222,9652
316,CL: Los Lagos-Alerce,-41.39694444444444,-72.91472222222222,-41.39694444444444,-72.91472222222222,278825
317,CL: Los Lagos-Osorno-Cancura,-40.75972222222222,-72.965,-40.75972222222222,-72.965,65502
318,CL: Aysen del General Carlos Ibanez del Campo-Coihaique,-45.575,-72.06611111111111,-45.575,-72.06611111111111,141056
319,CL: Magallanes y la Antartida Chilena-Punta Arenas,-53.15472222222222,-70.91111111111111,-53.15472222222222,-70.91111111111111,321825
320,CL: Los Rios-Valdivia,-39.814166666666665,-73.24583333333334,-39.814166666666665,-73.24583333333334,242968
321,CL: Los Rios-Valdivia-Niebla,-39.865833333333335,-73.39527777777778,-39.865833333333335,-73.39527777777778,289169
322,CL: Los Rios-Valdivia-Mariquina-Pelchuquin,-39.624722222222225,-73.0761111111111,-39.624722222222225,-73.0761111111111,60283
323,CL: Arica y Parinacota-Arica,-18.474444444444444,-70.29777777777778,-18.474444444444444,-70.29777777777778,250335
324,CO: Bogota D.C.,4.609444444444444,-74.08166666666666,4.609444444444444,-74.08166666666666,177708
325,CO: Amazonas,-1.1666666666666667,-71.5,-1.1666666666666667,-71.5,7977
326,CO: Antioquia,6.251666666666667,-75.56333333333333,6.251666666666667,-75.56333333333333,106910
327,CO: Atlantico,10.968333333333334,-74.78111111111112,10.968333333333334,-74.78111111111112,192318
328,CO: Bolivar,9.0,-74.33333333333333,9.0,-74.33333333333333,4190
329,CO: Boyaca,5.666666666666667,-73.0,5.666666666666667,-73.0,19029
330,CO: Caldas,5.266666666666667,-75.33333333333333,5.266666666666667,-75.33333333333333,7347
331,CO: Cauca,2.5,-76.83333333333333,2.5,-76.83333333333333,4144
332,CO: Cesar,9.333333333333334,-73.5,9.333333333333334,-73.5,3761
333,CO: Cordoba,8.333333333333334,-75.66666666666667,8.333333333333334,-75.66666666666667,6841
334,CO: Cundinamarca,5.0,-74.16666666666667,5.0,-74.16666666666667,15443
335,CO: Huila,2.5,-75.58333333333333,2.5,-75.58333333333333,8935
336,CO: Magdalena,11.240555555555554,-74.19888888888889,11.240555555555554,-74.19888888888889,158387
337,CO: Meta,3.5,-73.0,3.5,-73.0,16730
338,CO: Narino,1.5,-78.0,1.5,-78.0,438
339,CO: Norte de Santander,7.893888888888887,-72.50777777777778,7.893888888888887,-72.50777777777778,100369
340,CO: Risaralda,5.0,-76.0,5.0,-76.0,11926
341,CO: Santander,7.893888888888887,-72.50777777777778,7.893888888888887,-72.50777777777778,100369
342,CO: Tolima,4.438888888888889,-75.23222222222222,4.438888888888889,-75.23222222222222,148893
343,CO: Valle del Cauca,3.4372222222222226,-76.5225,3.4372222222222226,-76.5225,137884
344,CR: San Jose-Alajuelita,9.887222222222222,-84.11138888888888,9.887222222222222,-84.11138888888888,140891
345,CR: San Jose-Aserri,9.866666666666667,-84.1,9.866666666666667,-84.1,12921
346,CR: San Jose-Curridabat,9.91388888888889,-84.03583333333333,9.91388888888889,-84.03583333333333,105151
347,CR: San Jose-Desamparados,9.855277777777777,-84.0411111111111,9.855277777777777,-84.0411111111111,109026
348,CR: San Jose-Escazu,9.91861111111111,-84.13972222222223,9.91861111111111,-84.13972222222223,90985
349,CR: San Jose-Goicoechea,9.948333333333334,-84.06361111111111,9.948333333333334,-84.06361111111111,96314
350,CR: San Jose-Leon Cortes,9.682777777777778,-84.04777777777778,9.682777777777778,-84.04777777777778,25366
351,CR: San Jose-Montes de Oca,9.939444444444444,-84.03,9.939444444444444,-84.03,94960
352,CR: San Jose-Moravia,9.961944444444443,-84.04916666666666,9.961944444444443,-84.04916666666666,112737
353,CR: San Jose-Perez Zeledon,9.474444444444444,-83.50833333333334,9.474444444444444,-83.50833333333334,1304
354,CR: San Jose-Puriscal,9.726666666666667,-84.4038888888889,9.726666666666667,-84.4038888888889,94157
355,CR: San Jose-Santa Ana,9.924722222222222,-84.19388888888889,9.924722222222222,-84.19388888888889,81979
356,CR: San Jose-Tibas,9.966666666666667,-84.08333333333333,9.966666666666667,-84.08333333333333,117772
357,CR: San Jose-Turrubares,9.737222222222222,-84.52305555555556,9.737222222222222,-84.52305555555556,9056
358,CR: San Jose-San Jose,9.933333333333334,-84.08333333333333,9.933333333333334,-84.08333333333333,49307
359,CR: San Jose-Vasquez de Coronado,0.0,0.0,0.0,0.0,24021
360,CR: Alajuela-Central,10.016111111111112,-84.21138888888889,10.016111111111112,-84.21138888888889,93039
361,CR: Alajuela-Grecia,10.068888888888889,-84.31444444444445,10.068888888888889,-84.31444444444445,54976
362,CR: Alajuela-Los Chiles,11.035277777777777,-84.70583333333333,11.035277777777777,-84.70583333333333,82800
363,CR: Alajuela-Naranjo,10.107777777777777,-84.39277777777778,10.107777777777777,-84.39277777777778,134162
364,CR: Alajuela-Palmares,10.040277777777778,-84.43666666666667,10.040277777777778,-84.43666666666667,71086
365,CR: Alajuela-Poas,10.083333333333334,-84.23333333333333,10.083333333333334,-84.23333333333333,49970
366,CR: Alajuela-San Carlos,10.32638888888889,-84.43194444444445,10.32638888888889,-84.43194444444445,82755
367,CR: Alajuela-San Ramon,10.086944444444445,-84.47027777777778,10.086944444444445,-84.47027777777778,96061
368,CR: Alajuela-Upala,10.891944444444444,-85.01611111111112,10.891944444444444,-85.01611111111112,18633
369,CR: Alajuela-Sarchi,10.186944444444444,-84.30277777777778,10.186944444444444,-84.30277777777778,24518
370,CR: Cartago-El Guarco,9.739166666666666,-83.92722222222223,9.739166666666666,-83.92722222222223,2901
371,CR: Cartago-La Union,9.916666666666666,-83.98333333333333,9.916666666666666,-83.98333333333333,83847
372,CR: Cartago-Oreamuno,9.982222222222223,-83.84944444444444,9.982222222222223,-83.84944444444444,11361
373,CR: Cartago-Paraiso,9.838333333333335,-83.86638888888888,9.838333333333335,-83.86638888888888,78140
374,CR: Cartago-Turrialba,9.903611111111111,-83.68361111111112,9.903611111111111,-83.68361111111112,65781
375,CR: Cartago-Cartago,9.864444444444445,-83.91944444444445,9.864444444444445,-83.91944444444445,88520
376,CR: Heredia-Barva,10.066666666666666,-84.10833333333333,10.066666666666666,-84.10833333333333,68303
377,CR: Heredia-Belen,9.983333333333333,-84.16666666666667,9.983333333333333,-84.16666666666667,116196
378,CR: Heredia-San Pablo,9.996666666666666,-84.09333333333333,9.996666666666666,-84.09333333333333,96724
379,CR: Heredia-San Rafael,10.046388888888888,-84.07527777777777,10.046388888888888,-84.07527777777777,145530
380,CR: Heredia-Santa Barbara,10.083333333333334,-84.15,10.083333333333334,-84.15,124965
381,CR: Heredia-Santo Domingo,9.983333333333333,-84.06833333333333,9.983333333333333,-84.06833333333333,136043
382,CR: Heredia-Sarapiqui,10.5,-84.0,10.5,-84.0,52076
383,CR: Heredia-Heredia,9.993611111111111,-84.12722222222222,9.993611111111111,-84.12722222222222,92542
384,CR: Guanacaste-Canas,10.430833333333332,-85.09805555555555,10.430833333333332,-85.09805555555555,71140
385,CR: Guanacaste-Carrillo,9.870277777777778,-85.48138888888889,9.870277777777778,-85.48138888888889,27987
386,CR: Guanacaste-La Cruz,10.984166666666665,-85.59888888888888,10.984166666666665,-85.59888888888888,9182
387,CR: Guanacaste-Liberia,10.635,-85.4375,10.635,-85.4375,66997
388,CR: Guanacaste-Nicoya,10.150277777777777,-85.45083333333334,10.150277777777777,-85.45083333333334,72657
389,CR: Guanacaste-Santa Cruz,10.314722222222223,-85.81527777777778,10.314722222222223,-85.81527777777778,59971
390,CR: Puntarenas-Aguirre,9.431666666666667,-84.1613888888889,9.431666666666667,-84.1613888888889,67026
391,CR: Puntarenas-Buenos Aires,9.163611111111111,-83.32972222222222,9.163611111111111,-83.32972222222222,28672
392,CR: Puntarenas-Corredores,8.532222222222224,-82.91861111111112,8.532222222222224,-82.91861111111112,11048
393,CR: Puntarenas-Coto Brus,8.885277777777777,-82.94111111111111,8.885277777777777,-82.94111111111111,1815
394,CR: Puntarenas-Esparza,9.980833333333333,-84.65805555555556,9.980833333333333,-84.65805555555556,86804
395,CR: Puntarenas-Golfito,8.65388888888889,-83.18194444444445,8.65388888888889,-83.18194444444445,32973
396,CR: Puntarenas-Osa,8.71888888888889,-83.63916666666667,8.71888888888889,-83.63916666666667,2065
397,CR: Puntarenas-Puntarenas,9.976666666666667,-84.83777777777777,9.976666666666667,-84.83777777777777,72140
398,CR: Limon-Guacimo,10.2,-83.66666666666667,10.2,-83.66666666666667,19025
399,CR: Limon-Limon,9.990555555555554,-83.03583333333333,9.990555555555554,-83.03583333333333,73459
400,CR: Limon-Matina,10.013333333333334,-83.26416666666667,10.013333333333334,-83.26416666666667,2769
401,CR: Limon-Pococi,10.5,-83.63333333333334,10.5,-83.63333333333334,10988
402,CR: Limon-Siquirres,10.135833333333332,-83.4825,10.135833333333332,-83.4825,9383
403,CR: Limon-Talamanca,9.483888888888888,-83.48861111111111,9.483888888888888,-83.48861111111111,1304
404,DO: Distrito Nacional-Santo Domingo De Guzman,18.471666666666664,-69.89222222222223,18.471666666666664,-69.89222222222223,37529
405,DO: Azua-Sabana Yegua,18.41361111111111,-70.88805555555557,18.41361111111111,-70.88805555555557,14653
406,DO: Azua-Azua,18.453055555555554,-70.73472222222222,18.453055555555554,-70.73472222222222,35355
407,DO: Barahona-Paraiso,18.02638888888889,-71.2088888888889,18.02638888888889,-71.2088888888889,55647
408,DO: Barahona-Barahona,18.208333333333332,-71.10055555555554,18.208333333333332,-71.10055555555554,34116
409,DO: Duarte-San Francisco de Macoris,19.300833333333333,-70.2525,19.300833333333333,-70.2525,43665
410,DO: Duarte-Villa Riva,19.150277777777777,-69.88361111111112,19.150277777777777,-69.88361111111112,1200
411,DO: Elias Pina-El Llano,18.766666666666666,-71.66666666666667,18.766666666666666,-71.66666666666667,4891
412,DO: El Seibo-El Seibo (Mun.),0.0,0.0,0.0,0.0,24021
413,DO: Hermanas Mirabal-Salcedo (Mun.),0.0,0.0,0.0,0.0,24021
414,DO: La Altagracia-Higuey,18.615000000000002,-68.70777777777778,18.615000000000002,-68.70777777777778,41246
415,DO: La Romana-La Romana (Mun.),0.0,0.0,0.0,0.0,24021
416,DO: La Romana-Villa Hermosa,18.45111111111111,-69.04305555555555,18.45111111111111,-69.04305555555555,4982
417,DO: La Vega-Jima Abajo,19.128888888888888,-70.39527777777778,19.128888888888888,-70.39527777777778,5064
418,DO: La Vega-La Vega,19.221944444444443,-70.52944444444444,19.221944444444443,-70.52944444444444,29780
419,DO: La Vega-Constanza,18.909166666666664,-70.74472222222222,18.909166666666664,-70.74472222222222,15941
420,DO: Maria Trinidad Sanchez-Nagua,19.383055555555558,-69.84722222222221,19.383055555555558,-69.84722222222221,23280
421,DO: Monsenor Nouel-Bonao,18.936666666666667,-70.40916666666668,18.936666666666667,-70.40916666666668,7596
422,DO: Monsenor Nouel-Municipio Maimon,0.0,0.0,0.0,0.0,24021
423,DO: Montecristi-Castanuelas,19.71361111111111,-71.49861111111112,19.71361111111111,-71.49861111111112,5403
424,DO: Monte Plata-Monte Plata (Mun.),0.0,0.0,0.0,0.0,24021
425,DO: Monte Plata-Yamasa,18.773055555555555,-70.02583333333334,18.773055555555555,-70.02583333333334,33609
426,DO: Peravia-Bani,18.279444444444444,-70.33166666666666,18.279444444444444,-70.33166666666666,64542
427,DO: Puerto Plata-Puerto Plata,19.793333333333337,-70.68833333333333,19.793333333333337,-70.68833333333333,45814
428,DO: Puerto Plata-Sosua,19.75777777777778,-70.57,19.75777777777778,-70.57,7356
429,DO: Samana-Samana,19.25,-69.45,19.25,-69.45,7624
430,DO: Samana-Municipio Las Terrenas,0.0,0.0,0.0,0.0,24021
431,DO: Sanchez Ramirez-Cotui,19.052500000000002,-70.14916666666667,19.052500000000002,-70.14916666666667,21201
432,DO: San Cristobal-Bajos de Haina,18.415277777777778,-70.03305555555555,18.415277777777778,-70.03305555555555,45618
433,DO: San Cristobal-Cambita Garabito,18.5,-70.23333333333333,18.5,-70.23333333333333,12792
434,DO: San Cristobal-San Cristobal (Mun.),0.0,0.0,0.0,0.0,24021
435,DO: San Cristobal-Villa Altagracia,18.633333333333333,-70.25,18.633333333333333,-70.25,91899
436,DO: San Cristobal-San Gregorio de Nigua,18.383333333333333,-70.05222222222221,18.383333333333333,-70.05222222222221,54496
437,DO: San Juan-Las Matas de Farfan,18.873055555555556,-71.51638888888888,18.873055555555556,-71.51638888888888,32670
438,DO: San Juan-San Juan (Mun.),0.0,0.0,0.0,0.0,24021
439,DO: San Pedro de Macoris-San Pedro de Macoris (Munic.),0.0,0.0,0.0,0.0,24021
440,DO: San Pedro de Macoris-Ramon Santana (Munic.),0.0,0.0,0.0,0.0,24021
441,DO: Santiago Rodriguez-San Ignacio De Sabaneta,19.477777777777778,-71.3411111111111,19.477777777777778,-71.3411111111111,11492
442,DO: Santiago-Santiago (Mun.),0.0,0.0,0.0,0.0,24021
443,DO: Santiago-Villa Gonzalez,19.56416666666667,-70.78694444444444,19.56416666666667,-70.78694444444444,2472
444,DO: Santiago-Bisono,19.56361111111111,-70.87555555555555,19.56361111111111,-70.87555555555555,15940
445,DO: Santiago-San Jose de las Matas,19.33888888888889,-70.93805555555556,19.33888888888889,-70.93805555555556,38714
446,DO: Santo Domingo-Boca Chica (Mun.),0.0,0.0,0.0,0.0,24021
447,DO: Santo Domingo-Los Alcarrizos (DM),0.0,0.0,0.0,0.0,24021
448,DO: Santo Domingo-Santo Domingo Este,18.488333333333333,-69.85694444444444,18.488333333333333,-69.85694444444444,48384
449,DO: Santo Domingo-Santo Domingo Oeste,18.5,-70.0,18.5,-70.0,45030
450,DO: Santo Domingo-Pedro Brand,18.619444444444444,-70.09055555555555,18.619444444444444,-70.09055555555555,89661
451,DO: Santo Domingo-Santo Domingo Norte,19.615000000000002,-70.57416666666666,19.615000000000002,-70.57416666666666,4356
452,DO: Santo Domingo-San Antonio de Guerra,18.578888888888887,-69.66277777777778,18.578888888888887,-69.66277777777778,28588
453,DO: Valverde-Laguna Salada,19.7,-71.13333333333334,19.7,-71.13333333333334,42637
454,DO: Valverde-Mao,19.551666666666666,-71.07805555555555,19.551666666666666,-71.07805555555555,26628
455,DO: Independencia-Municipio Duverge,0.0,0.0,0.0,0.0,24021
456,DO: IBaoruco - Municipio Neiba,0.0,0.0,0.0,0.0,24021
457,DO: Espaillat - Municipio Moca,0.0,0.0,0.0,0.0,24021
458,DO: Espaillat - Municipio Gaspar Hernandez,0.0,0.0,0.0,0.0,24021
459,EC: Azuay-Cuenca,-2.9002777777777777,-79.00444444444445,-2.9002777777777777,-79.00444444444445,49906
460,EC: Bolivar-Guaranda,-1.5925000000000002,-79.00083333333333,-1.5925000000000002,-79.00083333333333,85977
461,EC: Canar-La Troncal,-2.4438888888888894,-79.37916666666666,-2.4438888888888894,-79.37916666666666,240025
462,EC: Carchi-Tulcan,0.8116666666666668,-77.71722222222222,0.8116666666666668,-77.71722222222222,87685
463,EC: Chimborazo-Alausi,-2.2030555555555558,-78.84694444444445,-2.2030555555555558,-78.84694444444445,31692
464,EC: Chimborazo-Guamote,-1.9333333333333333,-78.71666666666667,-1.9333333333333333,-78.71666666666667,26600
465,EC: Chimborazo-Riobamba,-1.6708333333333332,-78.64694444444446,-1.6708333333333332,-78.64694444444446,103278
466,EC: Chimborazo-PENIPE,-1.5622222222222222,-78.44805555555556,-1.5622222222222222,-78.44805555555556,36608
467,EC: Cotopaxi-Pujili,-0.9574999999999999,-78.69611111111111,-0.9574999999999999,-78.69611111111111,55502
468,EC: Cotopaxi-Latacunga,-0.935,-78.61527777777778,-0.935,-78.61527777777778,74066
469,EC: El Oro-Huaquillas,-3.475,-80.23083333333334,-3.475,-80.23083333333334,50847
470,EC: El Oro-Machala,-3.258611111111111,-79.96027777777778,-3.258611111111111,-79.96027777777778,78198
471,EC: Esmeraldas-Atacames,0.7919444444444445,-79.85638888888889,0.7919444444444445,-79.85638888888889,7069
472,EC: Esmeraldas-Quininde,0.2761111111111111,-79.64194444444445,0.2761111111111111,-79.64194444444445,5039
473,EC: Esmeraldas-Muisne,0.6102777777777778,-80.01861111111111,0.6102777777777778,-80.01861111111111,38328
474,EC: Guayas-Colimes,-1.5455555555555551,-80.01138888888889,-1.5455555555555551,-80.01138888888889,14803
475,EC: Guayas-Guayaquil,-2.196111111111111,-79.88611111111112,-2.196111111111111,-79.88611111111112,69962
476,EC: Guayas-Naranjal,-2.673611111111111,-79.61805555555554,-2.673611111111111,-79.61805555555554,70230
477,EC: Guayas-Milagro,-2.133888888888889,-79.59388888888888,-2.133888888888889,-79.59388888888888,83168
478,EC: Guayas-Balzar,-1.3652777777777778,-79.905,-1.3652777777777778,-79.905,41081
479,EC: Guayas-Daule,-1.860277777777778,-79.97666666666667,-1.860277777777778,-79.97666666666667,71916
480,EC: Guayas-Eloy Alfaro,-2.1755555555555555,-79.85499999999999,-2.1755555555555555,-79.85499999999999,83275
481,EC: Guayas-Naranjito,-2.1666666666666665,-79.46527777777779,-2.1666666666666665,-79.46527777777779,53426
482,EC: Guayas-Samborondon,-1.9625,-79.7238888888889,-1.9625,-79.7238888888889,50623
483,EC: Guayas-Alfredo Baquerizo Moreno,-1.9166666666666665,-79.51666666666667,-1.9166666666666665,-79.51666666666667,11334
484,EC: Imbabura-Ibarra,0.3516666666666666,-78.12222222222222,0.3516666666666666,-78.12222222222222,65914
485,EC: Imbabura-Otavalo,0.23444444444444446,-78.26222222222222,0.23444444444444446,-78.26222222222222,43549
486,EC: Loja-Loja,-3.993055555555556,-79.20416666666667,-3.993055555555556,-79.20416666666667,78099
487,EC: Loja-Saraguro,-3.65,-79.25,-3.65,-79.25,50789
488,EC: Loja-Catamayo,-4.0,-79.36666666666666,-4.0,-79.36666666666666,67658
489,EC: Los Rios-Baba,-1.7833333333333332,-79.66666666666667,-1.7833333333333332,-79.66666666666667,87129
490,EC: Los Rios-Babahoyo,-1.8019444444444446,-79.53416666666666,-1.8019444444444446,-79.53416666666666,81085
491,EC: Los Rios-Puebloviejo,-1.55,-79.53333333333333,-1.55,-79.53333333333333,35554
492,EC: Los Rios-Quevedo,-1.0286111111111111,-79.46333333333334,-1.0286111111111111,-79.46333333333334,68325
493,EC: Los Rios-CATARAMA,-1.575,-79.45972222222223,-1.575,-79.45972222222223,47161
494,EC: Los Rios-SAN JACINTO DE BUENA FE,-0.8930555555555555,-79.4888888888889,-0.8930555555555555,-79.4888888888889,53667
495,EC: Manabi-Chone,-0.6983333333333334,-80.0925,-0.6983333333333334,-80.0925,78809
496,EC: Manabi-Jipijapa,-1.3483333333333332,-80.57888888888888,-1.3483333333333332,-80.57888888888888,78302
497,EC: Manabi-Manta,-0.9491666666666667,-80.73111111111112,-0.9491666666666667,-80.73111111111112,77722
498,EC: Manabi-Pajan,-1.55,-80.43333333333334,-1.55,-80.43333333333334,35687
499,EC: Manabi-Portoviejo,-1.0544444444444445,-80.45444444444445,-1.0544444444444445,-80.45444444444445,110315
500,EC: Manabi-El Carmen,-0.40833333333333344,-79.5786111111111,-0.40833333333333344,-79.5786111111111,8897
501,EC: Manabi-Calceta,-0.8455555555555556,-80.16388888888889,-0.8455555555555556,-80.16388888888889,52368
502,EC: Manabi-Bahia de Caraquez,-0.6002777777777777,-80.42444444444445,-0.6002777777777777,-80.42444444444445,78497
503,EC: Manabi-Montecristi,-1.0455555555555556,-80.6588888888889,-1.0455555555555556,-80.6588888888889,90533
504,EC: Manabi-Pedernales,0.07166666666666666,-80.05194444444444,0.07166666666666666,-80.05194444444444,87509
505,EC: Manabi-FLAVIO ALFARO,-0.32305555555555554,-79.81555555555555,-0.32305555555555554,-79.81555555555555,43462
506,EC: Morona Santiago-Morona,-2.5,-77.91666666666667,-2.5,-77.91666666666667,40384
507,EC: Orellana-PUERTO FRANCISCO DE ORELLANA,-0.4663888888888889,-76.98694444444445,-0.4663888888888889,-76.98694444444445,60025
508,EC: Pichincha-Quito,-0.22972222222222222,-78.52472222222222,-0.22972222222222222,-78.52472222222222,84937
509,EC: Pichincha-Sangolqui,-0.33388888888888885,-78.45194444444445,-0.33388888888888885,-78.45194444444445,112043
510,EC: Pichincha-Cayambe,0.04083333333333333,-78.14611111111111,0.04083333333333333,-78.14611111111111,62339
511,EC: Santo Domingo de los Tsachilas-Santo Domingo,-0.25305555555555553,-79.17527777777778,-0.25305555555555553,-79.17527777777778,73411
512,EC: SANTO DOMINGO DE LOS COLORADOS,-0.25305555555555553,-79.17527777777778,-0.25305555555555553,-79.17527777777778,73411
513,EC: Sucumbios-Nueva Loja,0.08583333333333332,-76.89527777777778,0.08583333333333332,-76.89527777777778,152046
514,EC: Sucumbios-Shushufindi,-0.31055555555555553,-76.41638888888889,-0.31055555555555553,-76.41638888888889,46024
515,EC: Sucumbios-LUMBAQUI,0.0077777777777777776,-77.32138888888889,0.0077777777777777776,-77.32138888888889,42229
516,EC: Tungurahua-Ambato,-1.248888888888889,-78.61666666666666,-1.248888888888889,-78.61666666666666,69219
517,EC: Tungurahua-Santiago de Pillaro,0.0,0.0,0.0,0.0,24021
518,EC: Santa Elena-Santa Elena,-2.2261111111111114,-80.8586111111111,-2.2261111111111114,-80.8586111111111,115986
519,EC: Santa Elena-La Libertad,-2.231388888888889,-80.89972222222222,-2.231388888888889,-80.89972222222222,65033
520,SV: Ahuachapan-Ahuachapan,13.866666666666667,-89.91666666666667,13.866666666666667,-89.91666666666667,5202
521,SV: Ahuachapan-San Francisco Menendez,13.80638888888889,-90.02888888888889,13.80638888888889,-90.02888888888889,27954
522,SV: Ahuachapan-Guaymango,13.736666666666666,-89.85194444444444,13.736666666666666,-89.85194444444444,5293
523,SV: Ahuachapan-Turin,13.961666666666666,-89.77333333333333,13.961666666666666,-89.77333333333333,4469
524,SV: Santa Ana-Chalchuapa,14.033333333333333,-89.66666666666667,14.033333333333333,-89.66666666666667,3705
525,SV: Santa Ana-Metapan,14.316666666666666,-89.48333333333333,14.316666666666666,-89.48333333333333,20138
526,SV: Santa Ana-Santa Ana,13.994166666666667,-89.55972222222222,13.994166666666667,-89.55972222222222,59895
527,SV: Sonsonate-Acajutla,13.6375,-89.83611111111111,13.6375,-89.83611111111111,104774
528,SV: Sonsonate-Izalco,13.813333333333334,-89.63222222222221,13.813333333333334,-89.63222222222221,10895
529,SV: Sonsonate-Nahuizalco,13.805833333333334,-89.70194444444445,13.805833333333334,-89.70194444444445,17462
530,SV: Sonsonate-Santo Domingo,13.715555555555556,-89.79777777777778,13.715555555555556,-89.79777777777778,273882
531,SV: Sonsonate-Sonsonate,13.71888888888889,-89.72416666666666,13.71888888888889,-89.72416666666666,43499
532,SV: Sonsonate-Cuisnahuat,13.625555555555556,-89.63305555555554,13.625555555555556,-89.63305555555554,6271
533,SV: La Libertad-Antiguo Cuscatlan,13.667499999999999,-89.2461111111111,13.667499999999999,-89.2461111111111,96095
534,SV: La Libertad-Ciudad Arce,13.810833333333335,-89.41805555555555,13.810833333333335,-89.41805555555555,52268
535,SV: La Libertad-Colon,13.714444444444444,-89.35277777777777,13.714444444444444,-89.35277777777777,28905
536,SV: La Libertad-Nueva San Salvador,13.676944444444445,-89.27972222222222,13.676944444444445,-89.27972222222222,56898
537,SV: La Libertad-Quezaltepeque,13.831111111111111,-89.27194444444444,13.831111111111111,-89.27194444444444,39136
538,SV: La Libertad-Talnique,13.67,-89.39944444444446,13.67,-89.39944444444446,2041
539,SV: La Libertad-San Jose Villanueva,13.559722222222224,-89.27055555555556,13.559722222222224,-89.27055555555556,173264
540,SV: La Libertad-Zaragoza,13.57861111111111,-89.29777777777778,13.57861111111111,-89.29777777777778,47661
541,SV: La Libertad-San Juan de Opico,13.866666666666667,-89.4,13.866666666666667,-89.4,26105
542,SV: La Libertad-Jicalapa,13.530833333333334,-89.50666666666666,13.530833333333334,-89.50666666666666,130660
543,SV: Chalatenango-Chalatenango,14.133333333333333,-89.01666666666667,14.133333333333333,-89.01666666666667,5657
544,SV: Chalatenango-Nueva Concepcion,14.113888888888889,-89.30472222222222,14.113888888888889,-89.30472222222222,42692
545,SV: Chalatenango-Tejutla,14.216666666666667,-89.16666666666667,14.216666666666667,-89.16666666666667,3863
546,SV: Chalatenango-La Palma,14.298333333333334,-89.16027777777778,14.298333333333334,-89.16027777777778,120347
547,SV: Cuscatlan-Candelaria,13.681666666666667,-88.96916666666667,13.681666666666667,-88.96916666666667,5104
548,SV: Cuscatlan-Cojutepeque,13.716666666666667,-88.93333333333334,13.716666666666667,-88.93333333333334,20394
549,SV: Cuscatlan-San Cristobal,13.679444444444444,-88.92694444444444,13.679444444444444,-88.92694444444444,7118
550,SV: Cuscatlan-San Pedro Perulapan,13.778611111111111,-89.01277777777777,13.778611111111111,-89.01277777777777,34509
551,SV: Cuscatlan-Tenancingo,13.82638888888889,-88.96916666666667,13.82638888888889,-88.96916666666667,101949
552,SV: San Salvador-Apopa,13.807222222222222,-89.17916666666667,13.807222222222222,-89.17916666666667,30162
553,SV: San Salvador-Cuscatancingo,13.774722222222223,-89.17861111111111,13.774722222222223,-89.17861111111111,26503
554,SV: San Salvador-Delgado,13.721666666666668,-89.16861111111112,13.721666666666668,-89.16861111111112,48602
555,SV: San Salvador-Guazapa,13.890833333333333,-89.16416666666667,13.890833333333333,-89.16416666666667,21579
556,SV: San Salvador-Ilopango,13.699444444444445,-89.11972222222222,13.699444444444445,-89.11972222222222,51732
557,SV: San Salvador-Mejicanos,13.723888888888888,-89.18777777777778,13.723888888888888,-89.18777777777778,41865
558,SV: San Salvador-San Marcos,13.660833333333334,-89.1825,13.660833333333334,-89.1825,42284
559,SV: San Salvador-San Martin,13.743333333333332,-89.06333333333333,13.743333333333332,-89.06333333333333,24145
560,SV: San Salvador-San Salvador,13.689166666666667,-89.18694444444445,13.689166666666667,-89.18694444444445,41573
561,SV: San Salvador-Soyapango,13.709999999999999,-89.13972222222223,13.709999999999999,-89.13972222222223,45699
562,SV: San Salvador-Tonacatepeque,13.916666666666666,-89.2,13.916666666666666,-89.2,27509
563,SV: San Salvador-Ayutuxtepeque,13.758055555555556,-89.19583333333334,13.758055555555556,-89.19583333333334,36070
564,SV: San Salvador-Nejapa,13.841666666666667,-89.22166666666666,13.841666666666667,-89.22166666666666,13330
565,SV: La Paz-Santiago Nonualco,13.48472222222222,-88.95583333333333,13.48472222222222,-88.95583333333333,19120
566,SV: La Paz-Zacatecoluca,13.5,-88.86666666666666,13.5,-88.86666666666666,29137
567,SV: La Paz-Olocuilta,13.5,-89.1,13.5,-89.1,39701
568,SV: La Paz-San Luis Talpa,13.466666666666667,-89.08333333333333,13.466666666666667,-89.08333333333333,21577
569,SV: La Paz-Paraiso de Osorio,13.633333333333333,-88.96083333333334,13.633333333333333,-88.96083333333334,21973
570,SV: Cabanas-Ilobasco,13.883333333333333,-88.83333333333333,13.883333333333333,-88.83333333333333,5330
571,SV: Cabanas-Tejutepeque,13.853333333333333,-88.9225,13.853333333333333,-88.9225,26026
572,SV: San Vicente-San Vicente,13.596388888888889,-88.83749999999999,13.596388888888889,-88.83749999999999,21369
573,SV: San Vicente-Tecoluca,13.410833333333334,-88.74944444444445,13.410833333333334,-88.74944444444445,3918
574,SV: San Vicente-Santo Domingo,13.706944444444444,-88.85472222222222,13.706944444444444,-88.85472222222222,4399
575,SV: Usulutan-El Triunfo,13.264444444444445,-88.52944444444444,13.264444444444445,-88.52944444444444,15462
576,SV: Usulutan-Jucuapa,13.616666666666667,-88.43333333333334,13.616666666666667,-88.43333333333334,1907
577,SV: Usulutan-Puerto El Triunfo,13.264444444444445,-88.52944444444444,13.264444444444445,-88.52944444444444,15462
578,SV: Usulutan-Usulutan,13.433333333333334,-88.53333333333333,13.433333333333334,-88.53333333333333,15531
579,SV: Usulutan-San Agustin,13.45611111111111,-88.58972222222222,13.45611111111111,-88.58972222222222,3132
580,SV: San Miguel-Ciudad Barrios,13.762222222222222,-88.28277777777778,13.762222222222222,-88.28277777777778,24203
581,SV: San Miguel-San Luis de La Reina,13.82861111111111,-88.35555555555555,13.82861111111111,-88.35555555555555,3677
582,SV: San Miguel-San Miguel,13.483333333333333,-88.18333333333334,13.483333333333333,-88.18333333333334,31676
583,SV: San Miguel-Sesori,13.783333333333333,-88.41666666666667,13.783333333333333,-88.41666666666667,3974
584,SV: San Miguel-Lolotique,13.592500000000001,-88.33944444444444,13.592500000000001,-88.33944444444444,4525
585,SV: San Miguel-Comacaran,13.52888888888889,-88.05777777777777,13.52888888888889,-88.05777777777777,5334
586,SV: Morazan-Guatajiagua,13.680555555555555,-88.22500000000001,13.680555555555555,-88.22500000000001,12319
587,SV: Morazan-San Francisco Gotera,13.7,-88.1,13.7,-88.1,45104
588,SV: La Union-El Carmen,13.32,-87.99361111111111,13.32,-87.99361111111111,19330
589,SV: La Union-Pasaquina,13.510555555555555,-87.81777777777778,13.510555555555555,-87.81777777777778,10918
590,SV: La Union-Santa Rosa de Lima,13.75,-87.83333333333333,13.75,-87.83333333333333,4452
591,SV: La Union-Bolivar,13.583333333333334,-87.95,13.583333333333334,-87.95,4920
592,SV: La Union-Yayantique,13.442777777777778,-88.01861111111111,13.442777777777778,-88.01861111111111,90512
593,GT: Guatemala-Amatitlan,14.477222222222222,-90.63472222222222,14.477222222222222,-90.63472222222222,110260
594,GT: Guatemala-Chinautla,14.702777777777778,-90.49972222222222,14.702777777777778,-90.49972222222222,9292
595,GT: Guatemala-Guatemala,15.5,-90.25,15.5,-90.25,86009
596,GT: Guatemala-Mixco,14.630555555555556,-90.60694444444444,14.630555555555556,-90.60694444444444,49686
597,GT: Guatemala-Palencia,14.661111111111111,-90.32305555555556,14.661111111111111,-90.32305555555556,20856
598,GT: Guatemala-Petapa,14.501666666666667,-90.56194444444444,14.501666666666667,-90.56194444444444,56585
599,GT: Guatemala-San Juan Sacatepequez,14.71888888888889,-90.64416666666668,14.71888888888889,-90.64416666666668,42634
600,GT: Guatemala-San Pedro Sacatepequez,14.675555555555555,-90.62972222222221,14.675555555555555,-90.62972222222221,7598
601,GT: Guatemala-Villa Canales,14.482777777777779,-90.53416666666666,14.482777777777779,-90.53416666666666,39084
602,GT: Guatemala-Villa Nueva,14.525,-90.58527777777778,14.525,-90.58527777777778,59982
603,GT: Alta Verapaz-Chahal,15.72861111111111,-89.56472222222222,15.72861111111111,-89.56472222222222,490
604,GT: Alta Verapaz-Coban,15.470833333333333,-90.37083333333332,15.470833333333333,-90.37083333333332,34985
605,GT: Alta Verapaz-Fray Bartolome de las Casas,15.866388888888888,-89.73694444444445,15.866388888888888,-89.73694444444445,4588
606,GT: Alta Verapaz-San Cristobal Verapaz,15.396388888888888,-90.55944444444444,15.396388888888888,-90.55944444444444,15112
607,GT: Alta Verapaz-San Pedro Carcha,15.567499999999999,-90.18138888888889,15.567499999999999,-90.18138888888889,64877
608,GT: Alta Verapaz-Santa Cruz Verapaz,15.338333333333335,-90.41388888888889,15.338333333333335,-90.41388888888889,10427
609,GT: Alta Verapaz-Tactic,15.321944444444444,-90.35444444444444,15.321944444444444,-90.35444444444444,17695
610,GT: Baja Verapaz-Purulha,15.215,-90.03833333333333,15.215,-90.03833333333333,2076
611,GT: Baja Verapaz-Salama,15.102777777777778,-90.31805555555555,15.102777777777778,-90.31805555555555,44113
612,GT: Chiquimula-Chiquimula,14.8,-89.54583333333333,14.8,-89.54583333333333,57009
613,GT: Chiquimula-Ipala,14.582222222222223,-89.60472222222222,14.582222222222223,-89.60472222222222,4551
614,GT: Chiquimula-San Jacinto,14.674444444444443,-89.51694444444445,14.674444444444443,-89.51694444444445,12086
615,GT: El Progreso-Sanarate,14.821388888888889,-90.2125,14.821388888888889,-90.2125,20003
616,GT: Izabal-El Estor,15.428055555555554,-89.44861111111112,15.428055555555554,-89.44861111111112,29255
617,GT: Izabal-Los Amates,15.257222222222222,-89.10083333333333,15.257222222222222,-89.10083333333333,7212
618,GT: Izabal-Morales,15.444722222222222,-88.76638888888888,15.444722222222222,-88.76638888888888,5062
619,GT: Izabal-Puerto Barrios,15.727777777777778,-88.59444444444443,15.727777777777778,-88.59444444444443,60012
620,GT: Zacapa-Cabanas,14.888333333333334,-89.77583333333334,14.888333333333334,-89.77583333333334,1016
621,GT: Zacapa-Usumatlan,14.988888888888889,-89.78805555555556,14.988888888888889,-89.78805555555556,12807
622,GT: Jalapa-Jalapa,14.634722222222221,-89.9888888888889,14.634722222222221,-89.9888888888889,39041
623,GT: Jalapa-San Pedro Pinula,14.70611111111111,-89.84861111111111,14.70611111111111,-89.84861111111111,10674
624,GT: Jutiapa-Comapa,14.113888888888889,-89.90055555555556,14.113888888888889,-89.90055555555556,10381
625,GT: Jutiapa-Jutiapa,14.291666666666666,-89.89583333333334,14.291666666666666,-89.89583333333334,24199
626,GT: Jutiapa-Quezada,14.279722222222222,-90.0586111111111,14.279722222222222,-90.0586111111111,14330
627,GT: Santa Rosa-Barberena,14.307222222222222,-90.40777777777778,14.307222222222222,-90.40777777777778,16378
628,GT: Santa Rosa-Cuilapa,14.27638888888889,-90.29888888888888,14.27638888888889,-90.29888888888888,52432
629,GT: Santa Rosa-Santa Cruz Naranjo,14.383055555555556,-90.36888888888888,14.383055555555556,-90.36888888888888,22994
630,GT: Chimaltenango-Chimaltenango,14.666666666666666,-90.91666666666667,14.666666666666666,-90.91666666666667,20569
631,GT: Chimaltenango-El Tejar,14.670555555555556,-90.78972222222222,14.670555555555556,-90.78972222222222,8220
632,GT: Chimaltenango-San Jose Poaquil,14.85388888888889,-90.905,14.85388888888889,-90.905,11867
633,GT: Chimaltenango-Tecpan Guatemala,14.79861111111111,-91.015,14.79861111111111,-91.015,16350
634,GT: Chimaltenango-Yepocapa,14.467222222222222,-90.97416666666666,14.467222222222222,-90.97416666666666,5780
635,GT: Escuintla-Escuintla,14.300833333333333,-90.78555555555555,14.300833333333333,-90.78555555555555,38965
636,GT: Escuintla-Masagua,14.085,-90.80888888888889,14.085,-90.80888888888889,28318
637,GT: Escuintla-Palin,14.39111111111111,-90.70027777777779,14.39111111111111,-90.70027777777779,38566
638,GT: Escuintla-Santa Lucia Cotzumalguapa,14.335,-91.02333333333333,14.335,-91.02333333333333,13322
639,GT: Escuintla-Tiquizate,14.283333333333333,-91.36055555555555,14.283333333333333,-91.36055555555555,59657
640,GT: Sacatepequez-Alotenango,14.464722222222221,-90.8275,14.464722222222221,-90.8275,176742
641,GT: Sacatepequez-San Lucas Sacatepequez,14.5975,-90.64944444444446,14.5975,-90.64944444444446,73443
642,GT: Sacatepequez-Sumpango,14.64611111111111,-90.73416666666667,14.64611111111111,-90.73416666666667,56225
643,GT: Quetzaltenango-Cabrican,15.103055555555555,-91.64916666666667,15.103055555555555,-91.64916666666667,5716
644,GT: Quetzaltenango-Coatepeque,14.703888888888889,-91.86416666666666,14.703888888888889,-91.86416666666666,50553
645,GT: Quetzaltenango-Flores Costa Cuca,14.632222222222223,-91.86333333333333,14.632222222222223,-91.86333333333333,10738
646,GT: Quetzaltenango-Quetzaltenango,14.834722222222222,-91.51805555555555,14.834722222222222,-91.51805555555555,41669
647,GT: Quetzaltenango-Salcaja,14.876111111111111,-91.46166666666667,14.876111111111111,-91.46166666666667,20873
648,GT: Quetzaltenango-Sibilia,14.989166666666666,-91.6413888888889,14.989166666666666,-91.6413888888889,33215
649,GT: Retalhuleu-El Asintal,14.566944444444443,-91.74861111111112,14.566944444444443,-91.74861111111112,11936
650,GT: Retalhuleu-Retalhuleu,14.536111111111111,-91.67777777777778,14.536111111111111,-91.67777777777778,55226
651,GT: San Marcos-Concepcion Tutuapa,15.287777777777778,-91.86722222222221,15.287777777777778,-91.86722222222221,18522
652,GT: San Marcos-Ixchiguan,15.142777777777777,-91.91527777777779,15.142777777777777,-91.91527777777779,16495
653,GT: San Marcos-Malacatan,14.911111111111111,-92.05777777777777,14.911111111111111,-92.05777777777777,52586
654,GT: San Marcos-San Lorenzo,15.026944444444446,-91.745,15.026944444444446,-91.745,531
655,GT: San Marcos-San Pablo,14.95361111111111,-91.97055555555556,14.95361111111111,-91.97055555555556,9520
656,GT: San Marcos-Tacana,15.255,-92.12249999999999,15.255,-92.12249999999999,4461
657,GT: Solola-Nahuala,14.842777777777778,-91.31777777777778,14.842777777777778,-91.31777777777778,18924
658,GT: Solola-Santa Catarina Ixtahuacan,14.72,-91.37972222222221,14.72,-91.37972222222221,4624
659,GT: Solola-Solola,14.666666666666666,-91.25,14.666666666666666,-91.25,18695
660,GT: Suchitepequez-Chicacao,14.542777777777777,-91.3261111111111,14.542777777777777,-91.3261111111111,16170
661,GT: Suchitepequez-San Antonio Suchitepequez,14.518333333333334,-91.40416666666667,14.518333333333334,-91.40416666666667,53165
662,GT: Suchitepequez-San Pablo Jocopilas,14.589444444444444,-91.42833333333334,14.589444444444444,-91.42833333333334,18997
663,GT: Totonicapan-Momostenango,15.044166666666667,-91.40861111111111,15.044166666666667,-91.40861111111111,15421
664,GT: Totonicapan-San Cristobal Totonicapan,14.928055555555554,-91.47444444444444,14.928055555555554,-91.47444444444444,22328
665,GT: Totonicapan-Totonicapan,14.911666666666667,-91.3611111111111,14.911666666666667,-91.3611111111111,20694
666,GT: Quiche-Chichicastenango,14.943333333333333,-91.1111111111111,14.943333333333333,-91.1111111111111,23189
667,GT: Quiche-Chinique,15.069444444444445,-91.01777777777778,15.069444444444445,-91.01777777777778,2830
668,GT: Quiche-Nebaj,15.561388888888889,-91.17305555555556,15.561388888888889,-91.17305555555556,14388
669,GT: Quiche-Sacapulas,15.263055555555555,-91.11277777777777,15.263055555555555,-91.11277777777777,25089
670,GT: Quiche-San Pedro Jocopilas,15.154722222222222,-91.15583333333333,15.154722222222222,-91.15583333333333,14978
671,GT: Huehuetenango-Chiantla,15.448611111111111,-91.42861111111111,15.448611111111111,-91.42861111111111,8897
672,GT: Huehuetenango-Cuilco,15.416111111111112,-91.99194444444444,15.416111111111112,-91.99194444444444,2669
673,GT: Huehuetenango-La Democracia,15.633055555555556,-91.88333333333334,15.633055555555556,-91.88333333333334,20107
674,GT: Huehuetenango-San Gaspar Ixchil,15.390277777777778,-91.72916666666667,15.390277777777778,-91.72916666666667,15508
675,GT: Huehuetenango-San Rafael la Independencia,15.706388888888888,-91.53305555555555,15.706388888888888,-91.53305555555555,3425
676,GT: Huehuetenango-Santa Cruz Barillas,15.931388888888888,-91.22111111111111,15.931388888888888,-91.22111111111111,80126
677,GT: Huehuetenango-Santa Eulalia,15.749722222222221,-91.32527777777777,15.749722222222221,-91.32527777777777,12219
678,GT: Peten-Flores,16.9225,-89.89916666666667,16.9225,-89.89916666666667,49434
679,GT: Peten-La Libertad,17.003888888888888,-90.58222222222221,17.003888888888888,-90.58222222222221,2630
680,GT: Peten-San Benito,16.916666666666668,-89.91888888888889,16.916666666666668,-89.91888888888889,47005
681,HO: Atlantida-La Ceiba,0.0,0.0,0.0,0.0,24021
682,HO: Atlantida-Tela,0.0,0.0,0.0,0.0,24021
683,HO: Choluteca-Choluteca,0.0,0.0,0.0,0.0,24021
684,HO: Choluteca-El Triunfo,0.0,0.0,0.0,0.0,24021
685,HO: Choluteca-Pespire,0.0,0.0,0.0,0.0,24021
686,HO: Choluteca-San Marcos de Colon,0.0,0.0,0.0,0.0,24021
687,HO: Colon-Saba,0.0,0.0,0.0,0.0,24021
688,HO: Colon-Tocoa,0.0,0.0,0.0,0.0,24021
689,HO: Colon-Trujillo,0.0,0.0,0.0,0.0,24021
690,HO: Comayagua-Comayagua,0.0,0.0,0.0,0.0,24021
691,HO: Comayagua-Esquias,0.0,0.0,0.0,0.0,24021
692,HO: Comayagua-San Jeronimo,0.0,0.0,0.0,0.0,24021
693,HO: Comayagua-Siguatepeque,0.0,0.0,0.0,0.0,24021
694,HO: Copan-Copan Ruinas,0.0,0.0,0.0,0.0,24021
695,HO: Copan-Santa Rosa de Copan,0.0,0.0,0.0,0.0,24021
696,HO: Copan-La Union,0.0,0.0,0.0,0.0,24021
697,HO: Cortes-Choloma,0.0,0.0,0.0,0.0,24021
698,HO: Cortes-La Lima,0.0,0.0,0.0,0.0,24021
699,HO: Cortes-Omoa,0.0,0.0,0.0,0.0,24021
700,HO: Cortes-Puerto Cortes,0.0,0.0,0.0,0.0,24021
701,HO: Cortes-San Manuel,0.0,0.0,0.0,0.0,24021
702,HO: Cortes-San Pedro Sula,0.0,0.0,0.0,0.0,24021
703,HO: Cortes-Villanueva,0.0,0.0,0.0,0.0,24021
704,HO: Cortes-San Francisco de Yojoa,0.0,0.0,0.0,0.0,24021
705,HO: El Paraiso-Alauca,0.0,0.0,0.0,0.0,24021
706,HO: El Paraiso-Danli,0.0,0.0,0.0,0.0,24021
707,HO: El Paraiso-San Lucas,0.0,0.0,0.0,0.0,24021
708,HO: El Paraiso-Trojes,0.0,0.0,0.0,0.0,24021
709,HO: Francisco Morazan-Distrito Central-Amarateca,0.0,0.0,0.0,0.0,24021
710,HO: Francisco Morazan-La Libertad,0.0,0.0,0.0,0.0,24021
711,HO: Francisco Morazan-Villa de San Francisco,0.0,0.0,0.0,0.0,24021
712,HO: Francisco Morazan-San Antonio de Oriente,0.0,0.0,0.0,0.0,24021
713,HO: Intibuca-Colomoncagua,0.0,0.0,0.0,0.0,24021
714,HO: Intibuca-Intibuca,0.0,0.0,0.0,0.0,24021
715,HO: Intibuca-Masaguara,0.0,0.0,0.0,0.0,24021
716,HO: La Paz-Marcala,0.0,0.0,0.0,0.0,24021
717,HO: La Paz-Santa Elena,0.0,0.0,0.0,0.0,24021
718,HO: La Paz-Aguanqueterique,0.0,0.0,0.0,0.0,24021
719,HO: Lempira-Gracias,0.0,0.0,0.0,0.0,24021
720,HO: Lempira-Lepaera,0.0,0.0,0.0,0.0,24021
721,HO: Lempira-Talgua,0.0,0.0,0.0,0.0,24021
722,HO: Ocotopeque-Santa Fe,0.0,0.0,0.0,0.0,24021
723,HO: Olancho-Catacamas,0.0,0.0,0.0,0.0,24021
724,HO: Olancho-Juticalpa,0.0,0.0,0.0,0.0,24021
725,HO: Olancho-Guata,0.0,0.0,0.0,0.0,24021
726,HO: Olancho-San Esteban,0.0,0.0,0.0,0.0,24021
727,HO: Santa Barbara-Macuelizo,0.0,0.0,0.0,0.0,24021
728,HO: Santa Barbara-Petoa,0.0,0.0,0.0,0.0,24021
729,HO: Santa Barbara-San Marcos,0.0,0.0,0.0,0.0,24021
730,HO: Valle-Goascoran,0.0,0.0,0.0,0.0,24021
731,HO: Valle-Nacaome,0.0,0.0,0.0,0.0,24021
732,HO: Yoro-El Negrito,0.0,0.0,0.0,0.0,24021
733,HO: Yoro-El Progreso,0.0,0.0,0.0,0.0,24021
734,HO: Yoro-Morazan,0.0,0.0,0.0,0.0,24021
735,HO: Yoro-Olanchito,0.0,0.0,0.0,0.0,24021
736,HO: Yoro-Santa Rita,0.0,0.0,0.0,0.0,24021
737,HO: Yoro-Yoro,0.0,0.0,0.0,0.0,24021
738,MX: Norte/Baja California/Mexicali,32.62777777777778,-115.45444444444445,32.62777777777778,-115.45444444444445,55340
739,MX: Norte/Baja California/Tijuana,32.5025,-117.00361111111111,32.5025,-117.00361111111111,117938
740,MX: Norte/Coahuila/Matamoros,0.0,0.0,0.0,0.0,24021
741,MX: Norte/Coahuila/Allende,0.0,0.0,0.0,0.0,24021
742,MX: Norte/Chihuahua/Delicias,28.211111111111112,-105.48111111111112,28.211111111111112,-105.48111111111112,29925
743,MX: Norte/Chihuahua/Juarez,31.72,-106.46083333333334,31.72,-106.46083333333334,63939
744,MX: Norte/Durango/Durango,25.884166666666665,-103.35777777777777,25.884166666666665,-103.35777777777777,3801
745,MX: Norte/Durango/Maguarichi,0.0,0.0,0.0,0.0,24021
746,MX: Norte/Durango/Suchil,0.0,0.0,0.0,0.0,24021
747,MX: Norte/Nuevo Leon/General Escobedo,25.83222222222222,-100.38416666666667,25.83222222222222,-100.38416666666667,79166
748,MX: Norte/Nuevo Leon/Guadalupe,0.0,0.0,0.0,0.0,24021
749,MX: Norte/Nuevo Leon/Monterrey,25.636388888888888,-100.2925,25.636388888888888,-100.2925,106413
750,MX: Norte/San Luis Potosi/San Luis Potosi,22.614722222222223,-99.79416666666667,22.614722222222223,-99.79416666666667,3454
751,MX: Norte/San Luis Potosi/Soledad de Graciano Sanchez,22.208055555555553,-100.93611111111112,22.208055555555553,-100.93611111111112,27699
752,MX: Norte/Sinaloa/Culiacan,25.011666666666667,-107.33333333333333,25.011666666666667,-107.33333333333333,5504
753,MX: Norte/Sinaloa/Guasave,0.0,0.0,0.0,0.0,24021
754,MX: Norte/Sinaloa/Rosario,0.0,0.0,0.0,0.0,24021
755,MX: Norte/Sonora/Cajeme,27.404999999999998,-109.82916666666667,27.404999999999998,-109.82916666666667,34551
756,MX: Norte/Sonora/Hermosillo,28.870833333333334,-111.33555555555554,28.870833333333334,-111.33555555555554,10120
757,MX: Norte/Tamaulipas/Reynosa,26.056944444444444,-98.37777777777777,26.056944444444444,-98.37777777777777,82648
758,MX: Norte/Tamaulipas/Tampico,0.0,0.0,0.0,0.0,24021
759,MX: Norte/Tamaulipas/Padilla,24.033333333333335,-98.7,24.033333333333335,-98.7,160113
760,MX: Norte/Zacatecas/Valparaiso,0.0,0.0,0.0,0.0,24021
761,MX: Occidente/Aguascalientes/San Francisco De Los Romo,0.0,0.0,0.0,0.0,24021
762,MX: Occidente/Colima/Villa de Alvarez,0.0,0.0,0.0,0.0,24021
763,MX: Occidente/Guanajuato/Leon,0.0,0.0,0.0,0.0,24021
764,MX: Occidente/Guanajuato/Salamanca,0.0,0.0,0.0,0.0,24021
765,MX: Occidente/Guanajuato/San Jose Iturbide,0.0,0.0,0.0,0.0,24021
766,MX: Occidente/Guanajuato/Tarimoro,0.0,0.0,0.0,0.0,24021
767,MX: Occidente/Jalisco/Guadalajara,0.0,0.0,0.0,0.0,24021
768,MX: Occidente/Jalisco/Zapopan,0.0,0.0,0.0,0.0,24021
769,MX: Occidente/Jalisco/Arandas,0.0,0.0,0.0,0.0,24021
770,MX: Occidente/Jalisco/Jocotepec,0.0,0.0,0.0,0.0,24021
771,MX: Occidente/Jalisco/Zapotlanejo,0.0,0.0,0.0,0.0,24021
772,MX: Occidente/Michoacan/Morelia,0.0,0.0,0.0,0.0,24021
773,MX: Occidente/Michoacan/Sahuayo,0.0,0.0,0.0,0.0,24021
774,MX: Occidente/Michoacan/Nahuatzen,0.0,0.0,0.0,0.0,24021
775,MX: Occidente/Nayarit/Del Naya,0.0,0.0,0.0,0.0,24021
776,MX: Centro/Distrito Federal/Alvaro Obregon,0.0,0.0,0.0,0.0,24021
777,MX: Centro/Distrito Federal/Gustavo A. Madero,0.0,0.0,0.0,0.0,24021
778,MX: Centro/Distrito Federal/Iztacalco,0.0,0.0,0.0,0.0,24021
779,MX: Centro/Distrito Federal/Iztapalapa,19.357222222222223,-99.04472222222222,19.357222222222223,-99.04472222222222,79976
780,MX: Centro/Distrito Federal/Miguel Hidalgo,0.0,0.0,0.0,0.0,24021
781,MX: Centro/Hidalgo/Huejutla de Reyes,0.0,0.0,0.0,0.0,24021
782,MX: Centro/Hidalgo/Pachuca de Soto,20.124166666666667,-98.73416666666667,20.124166666666667,-98.73416666666667,93780
783,MX: Centro/Hidalgo/Tulancingo de Bravo,0.0,0.0,0.0,0.0,24021
784,MX: Centro/Mexico/Almoloya de Juarez,19.42388888888889,-99.75055555555555,19.42388888888889,-99.75055555555555,141000
785,MX: Centro/Mexico/Atizapan de Zaragoza,0.0,0.0,0.0,0.0,24021
786,MX: Centro/Mexico/Chicoloapan,19.40611111111111,-98.89027777777778,19.40611111111111,-98.89027777777778,49812
787,MX: Centro/Mexico/Ixtapaluca,19.316666666666666,-98.88527777777779,19.316666666666666,-98.88527777777779,66593
788,MX: Centro/Mexico/Naucalpan de Juarez,19.472499999999997,-99.23305555555555,19.472499999999997,-99.23305555555555,89308
789,MX: Centro/Mexico/Nextlalpan,0.0,0.0,0.0,0.0,24021
790,MX: Centro/Mexico/San Felipe del Progreso,19.698055555555555,-99.93,19.698055555555555,-99.93,1687
791,MX: Centro/Mexico/Teoloyucan,0.0,0.0,0.0,0.0,24021
792,MX: Centro/Mexico/Toluca,19.288333333333334,-99.65583333333333,19.288333333333334,-99.65583333333333,71155
793,MX: Centro/Mexico/Acolman,19.63888888888889,-98.91000000000001,19.63888888888889,-98.91000000000001,88050
794,MX: Centro/Mexico/Mexicaltzingo,0.0,0.0,0.0,0.0,24021
795,MX: Centro/Mexico/Xonacatlan,0.0,0.0,0.0,0.0,24021
796,MX: Centro/Morelos/Jiutepec,18.883055555555558,-99.17527777777778,18.883055555555558,-99.17527777777778,82423
797,MX: Centro/Morelos/Tlayacapan,18.956666666666667,-98.9825,18.956666666666667,-98.9825,67971
798,MX: Centro/Puebla/Puebla,19.355,-98.60583333333332,19.355,-98.60583333333332,23664
799,MX: Centro/Puebla/Tehuacan,18.462777777777777,-97.3913888888889,18.462777777777777,-97.3913888888889,62267
800,MX: Centro/Puebla/Cuetzalan Del Progreso,0.0,0.0,0.0,0.0,24021
801,MX: Centro/Queretaro/Queretaro,20.443333333333335,-99.97083333333333,20.443333333333335,-99.97083333333333,34195
802,MX: Centro/Queretaro/Colon,0.0,0.0,0.0,0.0,24021
803,MX: Centro/Tlaxcala/Yauhquemehcan,0.0,0.0,0.0,0.0,24021
804,MX: Sur/Campeche/Champoton,0.0,0.0,0.0,0.0,24021
805,MX: Sur/Chiapas/Tapachula,14.898888888888889,-92.26777777777778,14.898888888888889,-92.26777777777778,78720
806,MX: Sur/Chiapas/Villa Corzo,0.0,0.0,0.0,0.0,24021
807,MX: Sur/Chiapas/Mapastepec,0.0,0.0,0.0,0.0,24021
808,MX: Sur/Chiapas/Reforma,0.0,0.0,0.0,0.0,24021
809,MX: Sur/Guerrero/Chilpancingo de los Bravo,0.0,0.0,0.0,0.0,24021
810,MX: Sur/Guerrero/Coyuca De Benitez,0.0,0.0,0.0,0.0,24021
811,MX: Sur/Oaxaca/Tlacolula de Matamoros,0.0,0.0,0.0,0.0,24021
812,MX: Sur/Oaxaca/Ixtlan De Juarez,0.0,0.0,0.0,0.0,24021
813,MX: Sur/Oaxaca/Monjas,0.0,0.0,0.0,0.0,24021
814,MX: Sur/Oaxaca/San Lucas Ojitlan,0.0,0.0,0.0,0.0,24021
815,MX: Sur/Quintana Roo/Benito Juarez,0.0,0.0,0.0,0.0,24021
816,MX: Sur/Tabasco/Huimanguillo,0.0,0.0,0.0,0.0,24021
817,MX: Sur/Tabasco/Nacajuca,0.0,0.0,0.0,0.0,24021
818,MX: Sur/Veracruz/Veracruz,17.986666666666668,-94.73138888888889,17.986666666666668,-94.73138888888889,7816
819,MX: Sur/Veracruz/Gutierrez Zamora,0.0,0.0,0.0,0.0,24021
820,MX: Sur/Veracruz/Ixtaczoquitlan,0.0,0.0,0.0,0.0,24021
821,MX: Sur/Veracruz/Rafael Delgado,0.0,0.0,0.0,0.0,24021
822,MX: Sur/Veracruz/Tatatila,0.0,0.0,0.0,0.0,24021
823,MX: Sur/Veracruz/Tuxpam de Rodriguez Cano,0.0,0.0,0.0,0.0,24021
824,MX: Sur/Yucatan/Merida,20.90694444444444,-89.6211111111111,20.90694444444444,-89.6211111111111,58434
825,MX: Sur/Yucatan/Kantunil,0.0,0.0,0.0,0.0,24021
826,PA: Panama-Chepo,9.17,-79.10083333333333,9.17,-79.10083333333333,103352
827,PA: Panama-Panama,9.0,-80.0,9.0,-80.0,20576
828,PA: Panama-San Miguelito,9.050277777777778,-79.47055555555556,9.050277777777778,-79.47055555555556,189292
829,PA: Colon-Colon,9.354444444444445,-79.9,9.354444444444445,-79.9,103797
830,PA: Colon-Chagres,9.122777777777777,-80.11833333333333,9.122777777777777,-80.11833333333333,124336
831,PA: Bocas del Toro-Bocas del Toro,9.2,-82.46666666666667,9.2,-82.46666666666667,186155
832,PA: Bocas Del Toro-Changuinola,9.116944444444444,-82.87416666666665,9.116944444444444,-82.87416666666665,14589
833,PA: Bocas Del Toro-Chiriqui Grande,8.95,-82.11666666666666,8.95,-82.11666666666666,25457
834,PA: Cocle-Aguadulce,8.212499999999999,-80.61416666666666,8.212499999999999,-80.61416666666666,258725
835,PA: Cocle-Anton,8.463055555555554,-80.19527777777778,8.463055555555554,-80.19527777777778,162912
836,PA: Cocle-Nata,8.359722222222222,-80.56444444444445,8.359722222222222,-80.56444444444445,90264
837,PA: Cocle-Penonome,8.51888888888889,-80.35722222222222,8.51888888888889,-80.35722222222222,81901
838,PA: Chiriqui-Baru,8.809166666666668,-82.54138888888889,8.809166666666668,-82.54138888888889,245616
839,PA: Chiriqui-Boqueron,8.616666666666667,-82.56666666666666,8.616666666666667,-82.56666666666666,91274
840,PA: Chiriqui-Bugaba,8.545277777777777,-82.68444444444445,8.545277777777777,-82.68444444444445,512771
841,PA: Chiriqui-David,8.427222222222222,-82.43083333333334,8.427222222222222,-82.43083333333334,160352
842,PA: Chiriqui-Dolega,8.634444444444444,-82.47694444444444,8.634444444444444,-82.47694444444444,144458
843,PA: Chiriqui-Renacimiento,8.74472222222222,-82.78999999999999,8.74472222222222,-82.78999999999999,1389
844,PA: Chiriqui-Alanje,8.385555555555555,-82.61861111111111,8.385555555555555,-82.61861111111111,19790
845,PA: Herrera-Chitre,7.960555555555556,-80.42944444444444,7.960555555555556,-80.42944444444444,154204
846,PA: Herrera-Los Pozos,7.709444444444444,-80.64305555555556,7.709444444444444,-80.64305555555556,7056
847,PA: Herrera-Pese,7.8819444444444455,-80.6325,7.8819444444444455,-80.6325,6228
848,PA: Los Santos-Las Tablas,7.648333333333332,-80.29916666666666,7.648333333333332,-80.29916666666666,98262
849,PA: Los Santos-Los Santos,7.583333333333333,-80.33333333333333,7.583333333333333,-80.33333333333333,18935
850,PA: Los Santos-Tonosi,7.421111111111111,-80.51722222222222,7.421111111111111,-80.51722222222222,52748
851,PA: Veraguas-Canazas,8.355833333333333,-81.28611111111111,8.355833333333333,-81.28611111111111,82873
852,PA: Veraguas-Las Palmas,8.064166666666667,-81.51361111111112,8.064166666666667,-81.51361111111112,107821
853,PA: Veraguas-Santa Fe,8.672777777777776,-80.99138888888889,8.672777777777776,-80.99138888888889,17041
854,PA: Veraguas-Santiago,8.1,-80.98333333333333,8.1,-80.98333333333333,141085
855,PA: Veraguas-Sona,7.89111111111111,-81.33527777777778,7.89111111111111,-81.33527777777778,69045
856,PA: Darien-Chepigana,7.923888888888889,-77.94027777777778,7.923888888888889,-77.94027777777778,133694
857,PA: Darien-Pinogana,8.352222222222222,-77.83222222222221,8.352222222222222,-77.83222222222221,200184
858,PA: Ngobe Bugle-Besiko,8.54861111111111,-82.08972222222222,8.54861111111111,-82.08972222222222,202299
859,PA: Ngobe Bugle-Kankintu,8.895,-81.85749999999999,8.895,-81.85749999999999,68476
860,PA: Ngobe Bugle-Muna,8.350277777777777,-81.67194444444445,8.350277777777777,-81.67194444444445,4704
861,PA: Ngobe Bugle-Kusapin,9.171111111111111,-81.89611111111111,9.171111111111111,-81.89611111111111,47666
862,PA: Ngobe Bugle-Mirono,8.404444444444445,-81.83055555555555,8.404444444444445,-81.83055555555555,4877
863,PA: Guna Yala-Guna Yala,9.25,-78.25,9.25,-78.25,101101
864,PA: Panama Oeste - Arraijan,8.939722222222223,-79.64027777777778,8.939722222222223,-79.64027777777778,130147
865,PA: Panama Oeste - Capira,8.789722222222222,-80.01805555555555,8.789722222222222,-80.01805555555555,66164
866,PA: Panama Oeste - Chame,8.616944444444444,-79.91777777777779,8.616944444444444,-79.91777777777779,207987
867,PA: Panama Oeste - La Chorrera,8.880277777777778,-79.78333333333333,8.880277777777778,-79.78333333333333,193390
868,PA: Panama Oeste - San Carlos,8.626944444444446,-80.04722222222222,8.626944444444446,-80.04722222222222,5090
869,PY: Asuncion-Asuncion,-25.28638888888889,-57.64694444444444,-25.28638888888889,-57.64694444444444,126348
870,PY: Concepcion,-23.399722222222223,-57.43222222222222,-23.399722222222223,-57.43222222222222,82796
871,PY: Concepcion-Horqueta,-23.343055555555555,-57.051944444444445,-23.343055555555555,-57.051944444444445,219094
872,PY: Concepcion-Yby Ya'u,-22.96611111111111,-56.54055555555556,-22.96611111111111,-56.54055555555556,22906
873,PY: San Pedro-San Estanislao,-24.645555555555553,-56.39222222222222,-24.645555555555553,-56.39222222222222,12399
874,PY: San Pedro-San Pedro de Ycuamandiyu,-24.085277777777776,-57.08722222222222,-24.085277777777776,-57.08722222222222,7014
875,PY: San Pedro-General Elizardo Aquino,-24.44527777777778,-56.899166666666666,-24.44527777777778,-56.899166666666666,11354
876,PY: San Pedro-Chore,-24.184166666666666,-56.632777777777775,-24.184166666666666,-56.632777777777775,18754
877,PY: San Pedro-Guayaibi,-24.533333333333335,-56.403888888888886,-24.533333333333335,-56.403888888888886,23675
878,PY: San Pedro-Capiibary,-24.731666666666666,-56.02027777777778,-24.731666666666666,-56.02027777777778,9557
879,PY: San Pedro-Yatayty del Norte,0.0,0.0,0.0,0.0,24021
880,PY: San Pedro-Villa Del Rosario,-24.560833333333335,-57.07694444444445,-24.560833333333335,-57.07694444444445,34783
881,PY: Cordillera-Arroyos y Esteros,-25.04277777777778,-57.16222222222222,-25.04277777777778,-57.16222222222222,26865
882,PY: Cordillera-Emboscada,-25.128611111111113,-57.36277777777778,-25.128611111111113,-57.36277777777778,119534
883,PY: Cordillera-Eusebio Ayala,-25.361111111111114,-56.97138888888889,-25.361111111111114,-56.97138888888889,143836
884,PY: Cordillera-Primero de Marzo,-25.126944444444444,-56.97083333333334,-25.126944444444444,-56.97083333333334,2281
885,PY: Guaira-Paso Yobai,-25.739166666666666,-55.91305555555555,-25.739166666666666,-55.91305555555555,9119
886,PY: Guaira-Mauricio Jose Troche,-25.621111111111112,-56.15416666666667,-25.621111111111112,-56.15416666666667,4452
887,PY: Guaira-Itape,-25.854444444444447,-56.56666666666667,-25.854444444444447,-56.56666666666667,5157
888,PY: Caaguazu-Coronel Oviedo,-25.444444444444446,-56.44027777777777,-25.444444444444446,-56.44027777777777,96724
889,PY: Caaguazu-Repatriacion,-25.535,-55.992222222222225,-25.535,-55.992222222222225,29177
890,PY: Caaguazu-San Jose De Los Arroyos,-25.539166666666667,-56.698611111111106,-25.539166666666667,-56.698611111111106,20422
891,PY: Caaguazu-Caaguazu,-25.2,-55.833333333333336,-25.2,-55.833333333333336,23581
892,PY: Caaguazu-Carayao,-25.18722222222222,-56.32888888888889,-25.18722222222222,-56.32888888888889,12998
893,PY: Caaguazu-Doctor Juan Eulogio Estigarribia,-25.371666666666666,-55.70444444444445,-25.371666666666666,-55.70444444444445,80892
894,PY: Caaguazu-Jose Domingo Ocampos,-25.440277777777776,-55.4375,-25.440277777777776,-55.4375,15936
895,PY: Caaguazu-General Higinio Morinigo,0.0,0.0,0.0,0.0,24021
896,PY: Caazapa-Caazapa,-26.25,-56.06666666666667,-26.25,-56.06666666666667,4608
897,PY: Caazapa-Yuty,-26.607222222222223,-56.335,-26.607222222222223,-56.335,9473
898,PY: Itapua-La Encarnacion,-26.977777777777778,-55.89722222222222,-26.977777777777778,-55.89722222222222,60223
899,PY: Itapua-Natalio,-26.734166666666667,-55.13916666666667,-26.734166666666667,-55.13916666666667,10527
900,PY: Itapua-Pirapo,-26.833333333333332,-55.514722222222225,-26.833333333333332,-55.514722222222225,13418
901,PY: Itapua-Tomas Romero Pereira,-26.473333333333333,-55.282222222222224,-26.473333333333333,-55.282222222222224,75743
902,PY: Itapua-Bella Vista,-26.99527777777778,-55.544999999999995,-26.99527777777778,-55.544999999999995,5395
903,PY: Itapua-Capitan Miranda,-27.189444444444444,-55.81166666666666,-27.189444444444444,-55.81166666666666,208050
904,PY: Itapua-Mayor Julio Dionisio Otano,-26.353333333333335,-54.720555555555556,-26.353333333333335,-54.720555555555556,8732
905,PY: Itapua-San Rafael del Parana,-26.439444444444444,-55.10055555555556,-26.439444444444444,-55.10055555555556,6825
906,PY: Misiones-Ayolas,-27.384166666666665,-56.839444444444446,-27.384166666666665,-56.839444444444446,97604
907,PY: Misiones-Santa Maria de Fe,-26.783611111111114,-56.94333333333333,-26.783611111111114,-56.94333333333333,6371
908,PY: Paraguari-Quyquyho,-26.2525,-57.01027777777778,-26.2525,-57.01027777777778,2956
909,PY: Paraguari-General Bernardino Caballero,-25.76,-56.88611111111111,-25.76,-56.88611111111111,830
910,PY: Paraguari-Ybycui,-26.020555555555553,-57.01694444444444,-26.020555555555553,-57.01694444444444,93054
911,PY: Paraguari-Acahay,-25.889166666666664,-57.07638888888889,-25.889166666666664,-57.07638888888889,114815
912,PY: Paraguari-Escobar,-25.66861111111111,-57.025555555555556,-25.66861111111111,-57.025555555555556,50639
913,PY: Alto Parana-Ciudad Del Este,-25.509722222222223,-54.611111111111114,-25.509722222222223,-54.611111111111114,98037
914,PY: Alto Parana-Itakyry,-24.81416666666667,-55.152499999999996,-24.81416666666667,-55.152499999999996,1722
915,PY: Alto Parana-Minga Guazu,-25.503333333333334,-54.84138888888889,-25.503333333333334,-54.84138888888889,6239
916,PY: Alto Parana-Minga Pora,-24.866666666666667,-54.916666666666664,-24.866666666666667,-54.916666666666664,55366
917,PY: Alto Parana-Presidente Franco,-25.56361111111111,-54.61083333333333,-25.56361111111111,-54.61083333333333,84093
918,PY: Alto Parana-San Alberto,-24.97583333333333,-54.90611111111111,-24.97583333333333,-54.90611111111111,92059
919,PY: Alto Parana-Hernandarias,-25.315,-54.77777777777778,-25.315,-54.77777777777778,27067
920,PY: Alto Parana-Yguazu,-25.460833333333333,-55.00472222222222,-25.460833333333333,-55.00472222222222,60889
921,PY: Alto Parana-Doctor Juan Leon Mallorquin,-25.483611111111113,-55.254444444444445,-25.483611111111113,-55.254444444444445,4027
922,PY: Central-Aregua,-25.3125,-57.38472222222222,-25.3125,-57.38472222222222,41259
923,PY: Central-Capiata,-25.355,-57.445277777777775,-25.355,-57.445277777777775,69359
924,PY: Central-Fernando de la Mora,-25.33833333333333,-57.52166666666667,-25.33833333333333,-57.52166666666667,25069
925,PY: Central-Ita,-25.50027777777778,-57.36694444444444,-25.50027777777778,-57.36694444444444,54848
926,PY: Central-Itaugua,-25.3925,-57.35416666666667,-25.3925,-57.35416666666667,165789
927,PY: Central-Lambare,-25.346666666666664,-57.60638888888889,-25.346666666666664,-57.60638888888889,100672
928,PY: Central-Limpio,-25.16611111111111,-57.48555555555556,-25.16611111111111,-57.48555555555556,70383
929,PY: Central-Luque,-25.266944444444444,-57.490833333333335,-25.266944444444444,-57.490833333333335,91528
930,PY: Central-Mariano Roque Alonso,-25.20777777777778,-57.53194444444444,-25.20777777777778,-57.53194444444444,92974
931,PY: Central-San Antonio,-25.418333333333333,-57.56194444444444,-25.418333333333333,-57.56194444444444,140392
932,PY: Central-San Lorenzo,-25.339444444444442,-57.50861111111111,-25.339444444444442,-57.50861111111111,123905
933,PY: Central-Villa Elisa,-25.3675,-57.5925,-25.3675,-57.5925,102899
934,PY: Central-Julian Augusto Saldivar,0.0,0.0,0.0,0.0,24021
935,PY: Central-Nemby,-25.39472222222222,-57.535555555555554,-25.39472222222222,-57.535555555555554,137953
936,PY: Central-Ypane,-25.45583333333333,-57.50694444444444,-25.45583333333333,-57.50694444444444,84035
937,PY: Central-Chaco-Colonia Menno,0.0,0.0,0.0,0.0,24021
938,PY: Neembucu-Mayor Jose D. Martinez,0.0,0.0,0.0,0.0,24021
939,PY: Amambay-Pedro Juan Caballero,-22.547222222222224,-55.733333333333334,-22.547222222222224,-55.733333333333334,77348
940,PY: Canindeyu-Curuguaty,-24.33611111111111,-55.77444444444444,-24.33611111111111,-55.77444444444444,5431
941,PY: Canindeyu-Nueva Esperanza,-24.581666666666667,-54.653888888888886,-24.581666666666667,-54.653888888888886,11196
942,PY: Presidente Hayes-Nanawa,-25.279166666666665,-57.70305555555556,-25.279166666666665,-57.70305555555556,2968
943,PY: Presidente Hayes-Pozo Colorado,-23.466666666666665,-58.96666666666667,-23.466666666666665,-58.96666666666667,100310
944,PE: Gran Lima,-12.082222222222223,-77.04527777777777,-12.082222222222223,-77.04527777777777,166724
945,PE: Amazonas-BAGUA,-5.09,-78.39972222222222,-5.09,-78.39972222222222,12430
946,PE: Ancash-Chimbote,-9.075,-78.5936111111111,-9.075,-78.5936111111111,87514
947,PE: Ancash-Huaraz,-9.527777777777779,-77.52777777777777,-9.527777777777779,-77.52777777777777,136290
948,PE: Ancash-CACERES DEL PERU,-8.960833333333333,-78.07638888888889,-8.960833333333333,-78.07638888888889,180589
949,PE: Ancash-QUILLO,-9.316666666666666,-77.94888888888889,-9.316666666666666,-77.94888888888889,15972
950,PE: Apurimac-Curahuasi,-13.63861111111111,-72.61805555555554,-13.63861111111111,-72.61805555555554,14293
951,PE: Arequipa-Arequipa,-16.398888888888887,-71.535,-16.398888888888887,-71.535,48777
952,PE: Ayacucho-Ayacucho,-13.158611111111112,-74.22305555555556,-13.158611111111112,-74.22305555555556,75696
953,PE: Ayacucho-Vinchos,-13.14472222222222,-73.99111111111111,-13.14472222222222,-73.99111111111111,33940
954,PE: Cajamarca-Cachachi,-7.5675,-78.25333333333333,-7.5675,-78.25333333333333,46491
955,PE: Cajamarca-Cajamarca,-7.163611111111112,-78.50027777777778,-7.163611111111112,-78.50027777777778,95517
956,PE: Cajamarca-Encanada,-6.985,-78.40277777777779,-6.985,-78.40277777777779,32559
957,PE: Cajamarca-Huarango,-5.0811111111111105,-78.70916666666668,-5.0811111111111105,-78.70916666666668,19391
958,PE: Cajamarca-QUEROCOTILLO,-6.196666666666667,-79.09138888888889,-6.196666666666667,-79.09138888888889,11726
959,PE: Cusco-Cusco,-13.5225,-71.96722222222222,-13.5225,-71.96722222222222,73448
960,PE: Cusco-LARES,-13.199166666666667,-72.04472222222222,-13.199166666666667,-72.04472222222222,17794
961,PE: Huancavelica-Acoria,-12.599444444444446,-74.82333333333332,-12.599444444444446,-74.82333333333332,30686
962,PE: Huanuco-Chinchao,-9.606944444444444,-76.07138888888889,-9.606944444444444,-76.07138888888889,235731
963,PE: Huanuco-Huanuco,-9.930555555555555,-76.24222222222222,-9.930555555555555,-76.24222222222222,118774
964,PE: Ica-Chincha,-13.409722222222223,-76.13222222222221,-13.409722222222223,-76.13222222222221,110528
965,PE: Ica-Nazca,-14.830833333333333,-74.9388888888889,-14.830833333333333,-74.9388888888889,87139
966,PE: Ica-Yauca Del Rosario,-14.135277777777777,-75.5736111111111,-14.135277777777777,-75.5736111111111,92235
967,PE: Junin-Huancayo,-12.065000000000001,-75.20472222222223,-12.065000000000001,-75.20472222222223,66369
968,PE: Junin-Ingenio,-11.85361111111111,-75.22277777777778,-11.85361111111111,-75.22277777777778,9643
969,PE: Junin-La Oroya,-11.51888888888889,-75.89916666666667,-11.51888888888889,-75.89916666666667,14262
970,PE: Junin-Rio Tambo,-11.530833333333334,-73.81416666666667,-11.530833333333334,-73.81416666666667,7382
971,PE: Junin-SAN RAMON,-11.124166666666667,-75.35722222222222,-11.124166666666667,-75.35722222222222,30500
972,PE: La Libertad-Laredo,-8.089444444444444,-78.96000000000001,-8.089444444444444,-78.96000000000001,726
973,PE: La Libertad-Trujillo,-8.115833333333333,-79.02972222222222,-8.115833333333333,-79.02972222222222,137574
974,PE: La Libertad-Usquil,-7.8005555555555555,-78.36138888888888,-7.8005555555555555,-78.36138888888888,64798
975,PE: Lambayeque-Chiclayo,-6.771111111111111,-79.84083333333332,-6.771111111111111,-79.84083333333332,137047
976,PE: Lambayeque-Ferrenafe,-6.328888888888889,-79.46166666666667,-6.328888888888889,-79.46166666666667,12006
977,PE: Lambayeque-TUCUME,-6.506111111111111,-79.85722222222222,-6.506111111111111,-79.85722222222222,125327
978,PE: Lima-Huaral,-11.495,-77.20777777777778,-11.495,-77.20777777777778,88672
979,PE: Loreto-Fernando Lores,-4.278888888888889,-73.11472222222221,-4.278888888888889,-73.11472222222221,45222
980,PE: Loreto-JENARO HERRERA,-4.996111111111111,-73.69833333333334,-4.996111111111111,-73.69833333333334,8004
981,PE: Loreto-Iquitos,-3.748888888888889,-73.25361111111111,-3.748888888888889,-73.25361111111111,35607
982,PE: Piura-Frias,-4.926666666666667,-79.9713888888889,-4.926666666666667,-79.9713888888889,8740
983,PE: Piura-La Arena,-4.807777777777778,-81.205,-4.807777777777778,-81.205,2451
984,PE: Piura-Piura,-5.194444444444445,-80.63277777777778,-5.194444444444445,-80.63277777777778,105278
985,PE: Piura-Santo Domingo,-5.053055555555555,-79.91055555555556,-5.053055555555555,-79.91055555555556,10683
986,PE: Piura-Talara,-4.577222222222222,-81.27194444444444,-4.577222222222222,-81.27194444444444,128636
987,PE: Puno-Huancane,-15.151944444444444,-69.6211111111111,-15.151944444444444,-69.6211111111111,185704
988,PE: Puno-Juliaca,-15.5,-70.13333333333334,-15.5,-70.13333333333334,79619
989,PE: Puno-Pomata,-16.35666666666667,-69.28805555555556,-16.35666666666667,-69.28805555555556,6547
990,PE: Puno-Puno,-15.841944444444445,-70.01972222222223,-15.841944444444445,-70.01972222222223,198653
991,PE: Puno-ORURILLO,-14.686111111111112,-70.4875,-14.686111111111112,-70.4875,13384
992,PE: San Martin-Tarapoto,-6.508611111111111,-76.37305555555555,-6.508611111111111,-76.37305555555555,161046
993,PE: San Martin-RIOJA,-5.873333333333334,-77.4675,-5.873333333333334,-77.4675,7148
994,PE: San Martin-TINGO DE PONASA,-6.970277777777778,-76.21194444444444,-6.970277777777778,-76.21194444444444,12013
995,PE: Tacna-Tacna,-18.014444444444443,-70.25361111111111,-18.014444444444443,-70.25361111111111,165701
996,UY: Montevideo,-34.903055555555554,-56.18805555555555,-34.903055555555554,-56.18805555555555,137518
997,UY: Artigas-Artigas,-30.4,-56.46666666666667,-30.4,-56.46666666666667,243015
998,UY: Artigas-Pintadito,-30.431944444444447,-56.45666666666667,-30.431944444444447,-56.45666666666667,11425
999,UY: Artigas-Artigas rural,0.0,0.0,0.0,0.0,24021
1000,UY: Artigas-Bella Union,-30.259444444444444,-57.59916666666667,-30.259444444444444,-57.59916666666667,112394
1001,UY: Canelones-Colonia Nicolich,-34.815,-56.024166666666666,-34.815,-56.024166666666666,40473
1002,UY: Canelones-La Paz,-34.76027777777778,-56.225833333333334,-34.76027777777778,-56.225833333333334,65462
1003,UY: Canelones-Las Piedras,-34.730000000000004,-56.21888888888889,-34.730000000000004,-56.21888888888889,234593
1004,UY: Canelones-Pando,-34.716944444444444,-55.958333333333336,-34.716944444444444,-55.958333333333336,90140
1005,UY: Canelones-Paso Carrasco,-34.83833333333334,-56.03055555555555,-34.83833333333334,-56.03055555555555,16612
1006,UY: Canelones-Pinamar - Pinepark,0.0,0.0,0.0,0.0,24021
1007,UY: Canelones-Santa Lucia,-34.45333333333333,-56.39055555555556,-34.45333333333333,-56.39055555555556,4693
1008,UY: Canelones-Solymar,-34.82888888888889,-55.96361111111111,-34.82888888888889,-55.96361111111111,184974
1009,UY: Canelones-El Pinar,-34.79472222222222,-55.88944444444444,-34.79472222222222,-55.88944444444444,121754
1010,UY: Canelones-Sauce,-34.62027777777778,-56.06444444444444,-34.62027777777778,-56.06444444444444,1361
